{"row_id":0,"name":"TNL Car Title Loans","address":{"addresscountry":"USA","addresslocality":"Coral Springs","addressregion":"FL","postalcode":"33065"},"telephone":"+1754-241-0676","aggregaterating":{"ratingcount":"15","ratingvalue":"5"},"pricerange":"$2500 - $50000","description":"We offer small and medium sized auto title loans to the local community. Lowest rates in the state coupled with fast service makes us the right choice every time","openinghours":"Mo, Tu, We, Th, Fr, Sa 08:00-18:00 Su 09:00-14:00","page_url":"https:\/\/1hourcartitleloans.com\/locations\/title-loans-coral-springs-fl-676\/"}
{"row_id":1,"name":"TNL Car Title Loans","address":{"postalcode":"60202","addressregion":"IL","addresscountry":"USA","addresslocality":"Evanston"},"telephone":"+1224-296-2335","aggregaterating":{"ratingcount":"15","ratingvalue":"5"},"pricerange":"$2500 - $50000","description":"We offer small and medium sized auto title loans to the local community. Lowest rates in the state coupled with fast service makes us the right choice every time","openinghours":"Mo, Tu, We, Th, Fr, Sa 08:00-18:00 Su 09:00-14:00","page_url":"https:\/\/1hourcartitleloans.com\/locations\/title-loans-evanston-il-2335\/"}
{"row_id":2,"name":"TNL Car Title Loans","address":{"postalcode":"76051","addresscountry":"USA","addresslocality":"Grapevine","addressregion":"TX"},"telephone":"+1817-693-1552","aggregaterating":{"ratingcount":"15","ratingvalue":"5"},"pricerange":"$2500 - $50000","description":"We offer small and medium sized auto title loans to the local community. Lowest rates in the state coupled with fast service makes us the right choice every time","openinghours":"Mo, Tu, We, Th, Fr, Sa 08:00-18:00 Su 09:00-14:00","page_url":"https:\/\/1hourcartitleloans.com\/locations\/title-loans-grapevine-tx-1552\/"}
{"row_id":3,"name":"TNL Car Title Loans","address":{"addresscountry":"USA","postalcode":"77701","addressregion":"TX","addresslocality":"Beaumont"},"telephone":"+1409-710-2866","aggregaterating":{"ratingcount":"15","ratingvalue":"5"},"pricerange":"$2500 - $50000","description":"We offer small and medium sized auto title loans to the local community. Lowest rates in the state coupled with fast service makes us the right choice every time","openinghours":"Mo, Tu, We, Th, Fr, Sa 08:00-18:00 Su 09:00-14:00","page_url":"https:\/\/1hourcartitleloans.com\/locations\/title-loans-beaumont-tx-2866\/"}
{"row_id":4,"name":"TNL Car Title Loans","address":{"postalcode":"37604","addresscountry":"USA","addresslocality":"Johnson City","addressregion":"TN"},"telephone":"+1423-283-8455","aggregaterating":{"ratingcount":"15","ratingvalue":"5"},"pricerange":"$2500 - $50000","description":"We offer small and medium sized auto title loans to the local community. Lowest rates in the state coupled with fast service makes us the right choice every time","openinghours":"Mo, Tu, We, Th, Fr, Sa 08:00-18:00 Su 09:00-14:00","page_url":"https:\/\/1hourcartitleloans.com\/locations\/title-loans-johnson-city-tn-8455\/"}
{"row_id":5,"name":"TNL Car Title Loans","address":{"addresslocality":"Jackson","addressregion":"TN","addresscountry":"USA","postalcode":"38301"},"telephone":"+1731-256-6600","aggregaterating":{"ratingcount":"15","ratingvalue":"5"},"pricerange":"$2500 - $50000","description":"We offer small and medium sized auto title loans to the local community. Lowest rates in the state coupled with fast service makes us the right choice every time","openinghours":"Mo, Tu, We, Th, Fr, Sa 08:00-18:00 Su 09:00-14:00","page_url":"https:\/\/1hourcartitleloans.com\/locations\/title-loans-jackson-tn-6600\/"}
{"row_id":6,"name":"TNL Car Title Loans","address":{"postalcode":"47905","addresscountry":"USA","addresslocality":"Lafayette","addressregion":"IN"},"telephone":"+1765-632-0509","aggregaterating":{"ratingcount":"15","ratingvalue":"5"},"pricerange":"$2500 - $50000","description":"We offer small and medium sized auto title loans to the local community. Lowest rates in the state coupled with fast service makes us the right choice every time","openinghours":"Mo, Tu, We, Th, Fr, Sa 08:00-18:00 Su 09:00-14:00","page_url":"https:\/\/1hourcartitleloans.com\/locations\/title-loans-lafayette-in-0509\/"}
{"row_id":7,"name":"TNL Car Title Loans","address":{"postalcode":"85139","addresslocality":"Maricopa","addresscountry":"USA","addressregion":"AZ"},"telephone":"+1520-200-2348","aggregaterating":{"ratingcount":"15","ratingvalue":"5"},"pricerange":"$2500 - $50000","description":"We offer small and medium sized auto title loans to the local community. Lowest rates in the state coupled with fast service makes us the right choice every time","openinghours":"Mo, Tu, We, Th, Fr, Sa 08:00-18:00 Su 09:00-14:00","page_url":"https:\/\/1hourcartitleloans.com\/locations\/title-loans-maricopa-az-2348\/"}
{"row_id":8,"name":"TNL Car Title Loans","address":{"postalcode":"61265","addressregion":"IL","addresscountry":"USA","addresslocality":"Moline"},"telephone":"+1309-322-2149","aggregaterating":{"ratingcount":"15","ratingvalue":"5"},"pricerange":"$2500 - $50000","description":"We offer small and medium sized auto title loans to the local community. Lowest rates in the state coupled with fast service makes us the right choice every time","openinghours":"Mo, Tu, We, Th, Fr, Sa 08:00-18:00 Su 09:00-14:00","page_url":"https:\/\/1hourcartitleloans.com\/locations\/title-loans-moline-il-2149\/"}
{"row_id":9,"name":"TNL Car Title Loans","address":{"addresslocality":"Edmond","addressregion":"OK","addresscountry":"USA","postalcode":"73012"},"telephone":"+1405-509-8072","aggregaterating":{"ratingcount":"15","ratingvalue":"5"},"pricerange":"$2500 - $50000","description":"We offer small and medium sized auto title loans to the local community. Lowest rates in the state coupled with fast service makes us the right choice every time","openinghours":"Mo, Tu, We, Th, Fr, Sa 08:00-18:00 Su 09:00-14:00","page_url":"https:\/\/1hourcartitleloans.com\/locations\/title-loans-edmond-ok-8072\/"}
{"row_id":10,"name":"TNL Car Title Loans","address":{"addresslocality":"Jeffersonville","postalcode":"47130","addresscountry":"USA","addressregion":"IN"},"telephone":"+1812-670-5664","aggregaterating":{"ratingcount":"15","ratingvalue":"5"},"pricerange":"$2500 - $50000","description":"We offer small and medium sized auto title loans to the local community. Lowest rates in the state coupled with fast service makes us the right choice every time","openinghours":"Mo, Tu, We, Th, Fr, Sa 08:00-18:00 Su 09:00-14:00","page_url":"https:\/\/1hourcartitleloans.com\/locations\/title-loans-jeffersonville-in-5664\/"}
{"row_id":11,"name":"TNL Car Title Loans","address":{"addresscountry":"USA","addressregion":"TX","postalcode":"75057","addresslocality":"Lewisville"},"telephone":"+1469-830-1252","aggregaterating":{"ratingcount":"15","ratingvalue":"5"},"pricerange":"$2500 - $50000","description":"We offer small and medium sized auto title loans to the local community. Lowest rates in the state coupled with fast service makes us the right choice every time","openinghours":"Mo, Tu, We, Th, Fr, Sa 08:00-18:00 Su 09:00-14:00","page_url":"https:\/\/1hourcartitleloans.com\/locations\/title-loans-lewisville-tx-1252\/"}
{"row_id":12,"name":"TNL Car Title Loans","address":{"addresslocality":"Garden Grove","addresscountry":"USA","postalcode":"92840","addressregion":"CA"},"telephone":"+1657-206-1331","aggregaterating":{"ratingcount":"15","ratingvalue":"5"},"pricerange":"$2500 - $50000","description":"We offer small and medium sized auto title loans to the local community. Lowest rates in the state coupled with fast service makes us the right choice every time","openinghours":"Mo, Tu, We, Th, Fr, Sa 08:00-18:00 Su 09:00-14:00","page_url":"https:\/\/1hourcartitleloans.com\/locations\/title-loans-garden-grove-ca-1331\/"}
{"row_id":13,"name":"TNL Car Title Loans","address":{"postalcode":"97703","addresscountry":"USA","addressregion":"OR","addresslocality":"Bend"},"telephone":"+1458-206-6242","aggregaterating":{"ratingcount":"15","ratingvalue":"5"},"pricerange":"$2500 - $50000","description":"We offer small and medium sized auto title loans to the local community. Lowest rates in the state coupled with fast service makes us the right choice every time","openinghours":"Mo, Tu, We, Th, Fr, Sa 08:00-18:00 Su 09:00-14:00","page_url":"https:\/\/1hourcartitleloans.com\/locations\/title-loans-bend-or-6242\/"}
{"row_id":14,"name":"TNL Car Title Loans","address":{"postalcode":"90211","addresslocality":"Beverly Hills","addresscountry":"USA","addressregion":"CA"},"telephone":"+1424-254-7991","aggregaterating":{"ratingcount":"15","ratingvalue":"5"},"pricerange":"$2500 - $50000","description":"We offer small and medium sized auto title loans to the local community. Lowest rates in the state coupled with fast service makes us the right choice every time","openinghours":"Mo, Tu, We, Th, Fr, Sa 08:00-18:00 Su 09:00-14:00","page_url":"https:\/\/1hourcartitleloans.com\/locations\/title-loans-beverly-hills-ca-7991\/"}
{"row_id":15,"name":"TNL Car Title Loans","address":{"addressregion":"OK","addresslocality":"Oklahoma City","addresscountry":"USA","postalcode":"73104"},"telephone":"+1 405-652-1031","aggregaterating":{"ratingcount":"15","ratingvalue":"5"},"pricerange":"$2500 - $50000","description":"We offer small and medium sized auto title loans to the local community. Lowest rates in the state coupled with fast service makes us the right choice every time","openinghours":"Mo, Tu, We, Th, Fr, Sa 08:00-18:00 Su 09:00-14:00","page_url":"https:\/\/1hourcartitleloans.com\/locations\/title-loans-oklahoma-city-ok-031\/"}
{"row_id":16,"name":"TNL Car Title Loans","address":{"addressregion":"AZ","addresscountry":"USA","addresslocality":"Gilbert","postalcode":"85297"},"telephone":"+1480-561-0037","aggregaterating":{"ratingcount":"15","ratingvalue":"5"},"pricerange":"$2500 - $50000","description":"We offer small and medium sized auto title loans to the local community. Lowest rates in the state coupled with fast service makes us the right choice every time","openinghours":"Mo, Tu, We, Th, Fr, Sa 08:00-18:00 Su 09:00-14:00","page_url":"https:\/\/1hourcartitleloans.com\/locations\/title-loans-gilbert-az-0037\/"}
{"row_id":17,"name":"TNL Car Title Loans","address":{"addresslocality":"Lenexa","postalcode":"66215","addresscountry":"USA","addressregion":"KS"},"telephone":"+1913-340-9475","aggregaterating":{"ratingcount":"15","ratingvalue":"5"},"pricerange":"$2500 - $50000","description":"We offer small and medium sized auto title loans to the local community. Lowest rates in the state coupled with fast service makes us the right choice every time","openinghours":"Mo, Tu, We, Th, Fr, Sa 08:00-18:00 Su 09:00-14:00","page_url":"https:\/\/1hourcartitleloans.com\/locations\/title-loans-lenexa-ks-9475\/"}
{"row_id":18,"name":"TNL Car Title Loans","address":{"postalcode":"91320","addresscountry":"USA","addressregion":"CA","addresslocality":"Newbury Park"},"telephone":"+1805-376-4009","aggregaterating":{"ratingcount":"15","ratingvalue":"5"},"pricerange":"$2500 - $50000","description":"We offer small and medium sized auto title loans to the local community. Lowest rates in the state coupled with fast service makes us the right choice every time","openinghours":"Mo, Tu, We, Th, Fr, Sa 08:00-18:00 Su 09:00-14:00","page_url":"https:\/\/1hourcartitleloans.com\/locations\/title-loans-newbury-park-ca-4009\/"}
{"row_id":19,"name":"TNL Car Title Loans","address":{"postalcode":"33016","addresscountry":"USA","addresslocality":"Hialeah","addressregion":"FL"},"telephone":"+1786-697-0744","aggregaterating":{"ratingcount":"15","ratingvalue":"5"},"pricerange":"$2500 - $50000","description":"We offer small and medium sized auto title loans to the local community. Lowest rates in the state coupled with fast service makes us the right choice every time","openinghours":"Mo, Tu, We, Th, Fr, Sa 08:00-18:00 Su 09:00-14:00","page_url":"https:\/\/1hourcartitleloans.com\/locations\/title-loans-hialeah-fl-0744\/"}
{"row_id":20,"name":"TNL Car Title Loans","address":{"postalcode":"84020","addresscountry":"USA","addressregion":"UT","addresslocality":"Draper"},"telephone":"+1385-276-0455","aggregaterating":{"ratingcount":"15","ratingvalue":"5"},"pricerange":"$2500 - $50000","description":"We offer small and medium sized auto title loans to the local community. Lowest rates in the state coupled with fast service makes us the right choice every time","openinghours":"Mo, Tu, We, Th, Fr, Sa 08:00-18:00 Su 09:00-14:00","page_url":"https:\/\/1hourcartitleloans.com\/locations\/title-loans-draper-ut-0455\/"}
{"row_id":21,"name":"TNL Car Title Loans","address":{"postalcode":"44119","addresslocality":"Euclid","addresscountry":"USA","addressregion":"OH"},"telephone":"+1 216-400-0337","aggregaterating":{"ratingcount":"15","ratingvalue":"5"},"pricerange":"$2500 - $50000","description":"We offer small and medium sized auto title loans to the local community. Lowest rates in the state coupled with fast service makes us the right choice every time","openinghours":"Mo, Tu, We, Th, Fr, Sa 08:00-18:00 Su 09:00-14:00","page_url":"https:\/\/1hourcartitleloans.com\/locations\/title-loans-euclid-oh-0337\/"}
{"row_id":22,"name":"TNL Car Title Loans","address":{"addressregion":"VA","postalcode":"23320","addresscountry":"USA","addresslocality":"Chesapeake"},"telephone":"+1757-324-3291","aggregaterating":{"ratingcount":"15","ratingvalue":"5"},"pricerange":"$2500 - $50000","description":"We offer small and medium sized auto title loans to the local community. Lowest rates in the state coupled with fast service makes us the right choice every time","openinghours":"Mo, Tu, We, Th, Fr, Sa 08:00-18:00 Su 09:00-14:00","page_url":"https:\/\/1hourcartitleloans.com\/locations\/title-loans-chesapeake-va-3291\/"}
{"row_id":23,"name":"TNL Car Title Loans","address":{"postalcode":"95065","addresscountry":"USA","addresslocality":"Santa Cruz","addressregion":"CA"},"telephone":"+1831-226-1070","aggregaterating":{"ratingcount":"15","ratingvalue":"5"},"pricerange":"$2500 - $50000","description":"We offer small and medium sized auto title loans to the local community. Lowest rates in the state coupled with fast service makes us the right choice every time","openinghours":"Mo, Tu, We, Th, Fr, Sa 08:00-18:00 Su 09:00-14:00","page_url":"https:\/\/1hourcartitleloans.com\/locations\/title-loans-santa-cruz-ca-1070\/"}
{"row_id":24,"name":"TNL Car Title Loans","address":{"postalcode":"33319","addresslocality":"Lauderdale Lakes","addresscountry":"USA","addressregion":"FL"},"telephone":"+1954-526-1646","aggregaterating":{"ratingcount":"15","ratingvalue":"5"},"pricerange":"$2500 - $50000","description":"We offer small and medium sized auto title loans to the local community. Lowest rates in the state coupled with fast service makes us the right choice every time","openinghours":"Mo, Tu, We, Th, Fr, Sa 08:00-18:00 Su 09:00-14:00","page_url":"https:\/\/1hourcartitleloans.com\/locations\/title-loans-lauderdale-lakes-fl-1646\/"}
{"row_id":25,"name":"TNL Car Title Loans","address":{"addresslocality":"Glenview","postalcode":"60025","addresscountry":"USA","addressregion":"IL"},"telephone":"+1224-661-0177","aggregaterating":{"ratingcount":"15","ratingvalue":"5"},"pricerange":"$2500 - $50000","description":"We offer small and medium sized auto title loans to the local community. Lowest rates in the state coupled with fast service makes us the right choice every time","openinghours":"Mo, Tu, We, Th, Fr, Sa 08:00-18:00 Su 09:00-14:00","page_url":"https:\/\/1hourcartitleloans.com\/locations\/title-loans-glenview-il-0177\/"}
{"row_id":26,"name":"TNL Car Title Loans","address":{"addresscountry":"USA","addresslocality":"Lorain","postalcode":"44053","addressregion":"OH"},"telephone":"+1440-961-2018","aggregaterating":{"ratingcount":"15","ratingvalue":"5"},"pricerange":"$2500 - $50000","description":"We offer small and medium sized auto title loans to the local community. Lowest rates in the state coupled with fast service makes us the right choice every time","openinghours":"Mo, Tu, We, Th, Fr, Sa 08:00-18:00 Su 09:00-14:00","page_url":"https:\/\/1hourcartitleloans.com\/locations\/title-loans-lorain-oh-2018\/"}
{"row_id":27,"name":"TNL Car Title Loans","address":{"addressregion":"TN","addresscountry":"USA","postalcode":"37919","addresslocality":"Knoxville"},"telephone":"+1865-338-3530","aggregaterating":{"ratingcount":"15","ratingvalue":"5"},"pricerange":"$2500 - $50000","description":"We offer small and medium sized auto title loans to the local community. Lowest rates in the state coupled with fast service makes us the right choice every time","openinghours":"Mo, Tu, We, Th, Fr, Sa 08:00-18:00 Su 09:00-14:00","page_url":"https:\/\/1hourcartitleloans.com\/locations\/title-loans-knoxville-tn-3530\/"}
{"row_id":28,"name":"TNL Car Title Loans","address":{"postalcode":"93555","addresscountry":"USA","addresslocality":"Ridgecrest","addressregion":"CA"},"telephone":"+1442-294-0084","aggregaterating":{"ratingcount":"15","ratingvalue":"5"},"pricerange":"$2500 - $50000","description":"We offer small and medium sized auto title loans to the local community. Lowest rates in the state coupled with fast service makes us the right choice every time","openinghours":"Mo, Tu, We, Th, Fr, Sa 08:00-18:00 Su 09:00-14:00","page_url":"https:\/\/1hourcartitleloans.com\/locations\/title-loans-ridgecrest-ca-0084\/"}
{"row_id":29,"name":"TNL Car Title Loans","address":{"addressregion":"GA","addresscountry":"USA","addresslocality":"Marietta","postalcode":"30067"},"telephone":"+1470-531-1744","aggregaterating":{"ratingcount":"15","ratingvalue":"5"},"pricerange":"$2500 - $50000","description":"We offer small and medium sized auto title loans to the local community. Lowest rates in the state coupled with fast service makes us the right choice every time","openinghours":"Mo, Tu, We, Th, Fr, Sa 08:00-18:00 Su 09:00-14:00","page_url":"https:\/\/1hourcartitleloans.com\/locations\/title-loans-marietta-ga-1744\/"}
{"row_id":30,"name":"TNL Car Title Loans","address":{"postalcode":"77627","addresscountry":"USA","addresslocality":"Nederland","addressregion":"TX"},"telephone":"+1409-237-0171","aggregaterating":{"ratingcount":"15","ratingvalue":"5"},"pricerange":"$2500 - $50000","description":"We offer small and medium sized auto title loans to the local community. Lowest rates in the state coupled with fast service makes us the right choice every time","openinghours":"Mo, Tu, We, Th, Fr, Sa 08:00-18:00 Su 09:00-14:00","page_url":"https:\/\/1hourcartitleloans.com\/locations\/title-loans-nederland-tx-0171\/"}
{"row_id":31,"name":"TNL Car Title Loans","address":{"addresslocality":"Corvallis","addresscountry":"USA","addressregion":"OR","postalcode":"97330"},"telephone":"+1541-257-5212","aggregaterating":{"ratingcount":"15","ratingvalue":"5"},"pricerange":"$2500 - $50000","description":"We offer small and medium sized auto title loans to the local community. Lowest rates in the state coupled with fast service makes us the right choice every time","openinghours":"Mo, Tu, We, Th, Fr, Sa 08:00-18:00 Su 09:00-14:00","page_url":"https:\/\/1hourcartitleloans.com\/locations\/title-loans-corvallis-or-5212\/"}
{"row_id":32,"name":"TNL Car Title Loans","address":{"addressregion":"MS","postalcode":"39157","addresscountry":"USA","addresslocality":"Ridgeland"},"telephone":"+1601-202-1442","aggregaterating":{"ratingcount":"15","ratingvalue":"5"},"pricerange":"$2500 - $50000","description":"We offer small and medium sized auto title loans to the local community. Lowest rates in the state coupled with fast service makes us the right choice every time","openinghours":"Mo, Tu, We, Th, Fr, Sa 08:00-18:00 Su 09:00-14:00","page_url":"https:\/\/1hourcartitleloans.com\/locations\/title-loans-ridgeland-ms-1442\/"}
{"row_id":33,"name":"TNL Car Title Loans","address":{"postalcode":"86403","addresscountry":"USA","addresslocality":"Lake Havasu City","addressregion":"AZ"},"telephone":"+1928-216-4481","aggregaterating":{"ratingcount":"15","ratingvalue":"5"},"pricerange":"$2500 - $50000","description":"We offer small and medium sized auto title loans to the local community. Lowest rates in the state coupled with fast service makes us the right choice every time","openinghours":"Mo, Tu, We, Th, Fr, Sa 08:00-18:00 Su 09:00-14:00","page_url":"https:\/\/1hourcartitleloans.com\/locations\/title-loans-lake-havasu-city-az-4481\/"}
{"row_id":34,"name":"TNL Car Title Loans","address":{"addresslocality":"Rohnert Park","addresscountry":"USA","postalcode":"94928","addressregion":"CA"},"telephone":"+1707-665-6009","aggregaterating":{"ratingcount":"15","ratingvalue":"5"},"pricerange":"$2500 - $50000","description":"We offer small and medium sized auto title loans to the local community. Lowest rates in the state coupled with fast service makes us the right choice every time","openinghours":"Mo, Tu, We, Th, Fr, Sa 08:00-18:00 Su 09:00-14:00","page_url":"https:\/\/1hourcartitleloans.com\/locations\/title-loans-rohnert-park-ca-6009\/"}
{"row_id":35,"name":"TNL Car Title Loans","address":{"addresslocality":"Grove City","addresscountry":"USA","postalcode":"43123","addressregion":"OH"},"telephone":"+1380-666-2611","aggregaterating":{"ratingcount":"15","ratingvalue":"5"},"pricerange":"$2500 - $50000","description":"We offer small and medium sized auto title loans to the local community. Lowest rates in the state coupled with fast service makes us the right choice every time","openinghours":"Mo, Tu, We, Th, Fr, Sa 08:00-18:00 Su 09:00-14:00","page_url":"https:\/\/1hourcartitleloans.com\/locations\/title-loans-grove-city-oh-2611\/"}
{"row_id":36,"name":"TNL Car Title Loans","address":{"postalcode":"92374","addresscountry":"USA","addresslocality":"Redlands","addressregion":"CA"},"telephone":"+1909-654-4010","aggregaterating":{"ratingcount":"15","ratingvalue":"5"},"pricerange":"$2500 - $50000","description":"We offer small and medium sized auto title loans to the local community. Lowest rates in the state coupled with fast service makes us the right choice every time","openinghours":"Mo, Tu, We, Th, Fr, Sa 08:00-18:00 Su 09:00-14:00","page_url":"https:\/\/1hourcartitleloans.com\/locations\/title-loans-redlands-ca-4010\/"}
{"row_id":37,"name":"TNL Car Title Loans","address":{"addresslocality":"Mt Prospect","addressregion":"IL","addresscountry":"USA","postalcode":"60056"},"telephone":"+1224-764-1922","aggregaterating":{"ratingcount":"15","ratingvalue":"5"},"pricerange":"$2500 - $50000","description":"We offer small and medium sized auto title loans to the local community. Lowest rates in the state coupled with fast service makes us the right choice every time","openinghours":"Mo, Tu, We, Th, Fr, Sa 08:00-18:00 Su 09:00-14:00","page_url":"https:\/\/1hourcartitleloans.com\/locations\/title-loans-mt-prospect-il-1922\/"}
{"row_id":38,"name":"TNL Car Title Loans","address":{"addresslocality":"Corona","addresscountry":"USA","postalcode":"92881","addressregion":"CA"},"telephone":"+1951-429-3161","aggregaterating":{"ratingcount":"15","ratingvalue":"5"},"pricerange":"$2500 - $50000","description":"We offer small and medium sized auto title loans to the local community. Lowest rates in the state coupled with fast service makes us the right choice every time","openinghours":"Mo, Tu, We, Th, Fr, Sa 08:00-18:00 Su 09:00-14:00","page_url":"https:\/\/1hourcartitleloans.com\/locations\/title-loans-corona-ca-3161\/"}
{"row_id":39,"name":"TNL Car Title Loans","address":{"postalcode":"94061","addresscountry":"USA","addresslocality":"Redwood City","addressregion":"CA"},"telephone":"+1650-503-9787","aggregaterating":{"ratingcount":"15","ratingvalue":"5"},"pricerange":"$2500 - $50000","description":"We offer small and medium sized auto title loans to the local community. Lowest rates in the state coupled with fast service makes us the right choice every time","openinghours":"Mo, Tu, We, Th, Fr, Sa 08:00-18:00 Su 09:00-14:00","page_url":"https:\/\/1hourcartitleloans.com\/locations\/title-loans-redwood-city-ca-9787\/"}
{"row_id":40,"name":"TNL Car Title Loans","address":{"addresslocality":"Fullerton","addresscountry":"USA","addressregion":"CA","postalcode":"92831"},"telephone":"+1657-500-4240","aggregaterating":{"ratingcount":"15","ratingvalue":"5"},"pricerange":"$2500 - $50000","description":"We offer small and medium sized auto title loans to the local community. Lowest rates in the state coupled with fast service makes us the right choice every time","openinghours":"Mo, Tu, We, Th, Fr, Sa 08:00-18:00 Su 09:00-14:00","page_url":"https:\/\/1hourcartitleloans.com\/locations\/title-loans-fullerton-ca-4240\/"}
{"row_id":41,"name":"TNL Car Title Loans","address":{"addresscountry":"USA","addresslocality":"Huntsville","postalcode":"35801","addressregion":"AL"},"telephone":"+1256-469-1242","aggregaterating":{"ratingcount":"15","ratingvalue":"5"},"pricerange":"$2500 - $50000","description":"We offer small and medium sized auto title loans to the local community. Lowest rates in the state coupled with fast service makes us the right choice every time","openinghours":"Mo, Tu, We, Th, Fr, Sa 08:00-18:00 Su 09:00-14:00","page_url":"https:\/\/1hourcartitleloans.com\/locations\/title-loans-huntsville-al-1242\/"}
{"row_id":42,"name":"TNL Car Title Loans","address":{"addressregion":"SC","postalcode":"29150","addresslocality":"Sumter","addresscountry":"USA"},"telephone":"+1803-757-0091","aggregaterating":{"ratingcount":"15","ratingvalue":"5"},"pricerange":"$2500 - $50000","description":"We offer small and medium sized auto title loans to the local community. Lowest rates in the state coupled with fast service makes us the right choice every time","openinghours":"Mo, Tu, We, Th, Fr, Sa 08:00-18:00 Su 09:00-14:00","page_url":"https:\/\/1hourcartitleloans.com\/locations\/title-loans-sumter-sc-0091\/"}
{"row_id":43,"name":"TNL Car Title Loans","address":{"addresslocality":"Tinley Park","addresscountry":"USA","addressregion":"IL","postalcode":"60477"},"telephone":"+1708-532-8551","aggregaterating":{"ratingcount":"15","ratingvalue":"5"},"pricerange":"$2500 - $50000","description":"We offer small and medium sized auto title loans to the local community. Lowest rates in the state coupled with fast service makes us the right choice every time","openinghours":"Mo, Tu, We, Th, Fr, Sa 08:00-18:00 Su 09:00-14:00","page_url":"https:\/\/1hourcartitleloans.com\/locations\/title-loans-tinley-park-il-8551\/"}
{"row_id":44,"name":"TNL Car Title Loans","address":{"postalcode":"91106","addresscountry":"USA","addresslocality":"Pasadena","addressregion":"CA"},"telephone":"+1626-515-6113","aggregaterating":{"ratingcount":"15","ratingvalue":"5"},"pricerange":"$2500 - $50000","description":"We offer small and medium sized auto title loans to the local community. Lowest rates in the state coupled with fast service makes us the right choice every time","openinghours":"Mo, Tu, We, Th, Fr, Sa 08:00-18:00 Su 09:00-14:00","page_url":"https:\/\/1hourcartitleloans.com\/locations\/title-loans-pasadena-ca-6113\/"}
{"row_id":45,"name":"TNL Car Title Loans","address":{"addresscountry":"USA","postalcode":"85635","addressregion":"AZ","addresslocality":"Sierra Vista"},"telephone":"+1520-200-2283","aggregaterating":{"ratingcount":"15","ratingvalue":"5"},"pricerange":"$2500 - $50000","description":"We offer small and medium sized auto title loans to the local community. Lowest rates in the state coupled with fast service makes us the right choice every time","openinghours":"Mo, Tu, We, Th, Fr, Sa 08:00-18:00 Su 09:00-14:00","page_url":"https:\/\/1hourcartitleloans.com\/locations\/title-loans-sierra-vista-az-283\/"}
{"row_id":46,"name":"TNL Car Title Loans","address":{"addresscountry":"USA","addresslocality":"Atlanta","postalcode":"30308","addressregion":"GA"},"telephone":"+1470-305-5118","aggregaterating":{"ratingcount":"15","ratingvalue":"5"},"pricerange":"$2500 - $50000","description":"We offer small and medium sized auto title loans to the local community. Lowest rates in the state coupled with fast service makes us the right choice every time","openinghours":"Mo, Tu, We, Th, Fr, Sa 08:00-18:00 Su 09:00-14:00","page_url":"https:\/\/1hourcartitleloans.com\/locations\/title-loans-atlanta-ga-5118\/"}
{"row_id":47,"name":"TNL Car Title Loans","address":{"addresslocality":"Covina","addresscountry":"USA","postalcode":"91724","addressregion":"CA"},"telephone":"+1626-655-0075","aggregaterating":{"ratingcount":"15","ratingvalue":"5"},"pricerange":"$2500 - $50000","description":"We offer small and medium sized auto title loans to the local community. Lowest rates in the state coupled with fast service makes us the right choice every time","openinghours":"Mo, Tu, We, Th, Fr, Sa 08:00-18:00 Su 09:00-14:00","page_url":"https:\/\/1hourcartitleloans.com\/locations\/title-loans-covina-ca-0075\/"}
{"row_id":48,"name":"TNL Car Title Loans","address":{"postalcode":"78501","addresslocality":"McAllen","addresscountry":"USA","addressregion":"TX"},"telephone":"+1956-540-2875","aggregaterating":{"ratingcount":"15","ratingvalue":"5"},"pricerange":"$2500 - $50000","description":"We offer small and medium sized auto title loans to the local community. Lowest rates in the state coupled with fast service makes us the right choice every time","openinghours":"Mo, Tu, We, Th, Fr, Sa 08:00-18:00 Su 09:00-14:00","page_url":"https:\/\/1hourcartitleloans.com\/locations\/title-loans-mcallen-tx-2875\/"}
{"row_id":49,"name":"TNL Car Title Loans","address":{"addresslocality":"Stillwater","postalcode":"74074","addresscountry":"USA","addressregion":"OK"},"telephone":"+1405-652-1667","aggregaterating":{"ratingcount":"15","ratingvalue":"5"},"pricerange":"$2500 - $50000","description":"We offer small and medium sized auto title loans to the local community. Lowest rates in the state coupled with fast service makes us the right choice every time","openinghours":"Mo, Tu, We, Th, Fr, Sa 08:00-18:00 Su 09:00-14:00","page_url":"https:\/\/1hourcartitleloans.com\/locations\/title-loans-stillwater-ok-1667\/"}
{"row_id":50,"name":"TNL Car Title Loans","address":{"addresslocality":"Oakland Park","addresscountry":"USA","postalcode":"33334","addressregion":"FL"},"telephone":"+1954-526-1401","aggregaterating":{"ratingcount":"15","ratingvalue":"5"},"pricerange":"$2500 - $50000","description":"We offer small and medium sized auto title loans to the local community. Lowest rates in the state coupled with fast service makes us the right choice every time","openinghours":"Mo, Tu, We, Th, Fr, Sa 08:00-18:00 Su 09:00-14:00","page_url":"https:\/\/1hourcartitleloans.com\/locations\/title-loans-oakland-park-fl-1401\/"}
{"row_id":51,"name":"TNL Car Title Loans","address":{"addresslocality":"Altadena","addresscountry":"USA","postalcode":"91001","addressregion":"CA"},"telephone":"+1626-567-0202","aggregaterating":{"ratingcount":"15","ratingvalue":"5"},"pricerange":"$2500 - $50000","description":"We offer small and medium sized auto title loans to the local community. Lowest rates in the state coupled with fast service makes us the right choice every time","openinghours":"Mo, Tu, We, Th, Fr, Sa 08:00-18:00 Su 09:00-14:00","page_url":"https:\/\/1hourcartitleloans.com\/locations\/title-loans-altadena-ca-0202\/"}
{"row_id":52,"name":"TNL Car Title Loans","address":{"postalcode":"84010","addresscountry":"USA","addressregion":"UT","addresslocality":"Bountiful"},"telephone":"+1385-300-8490","aggregaterating":{"ratingcount":"15","ratingvalue":"5"},"pricerange":"$2500 - $50000","description":"We offer small and medium sized auto title loans to the local community. Lowest rates in the state coupled with fast service makes us the right choice every time","openinghours":"Mo, Tu, We, Th, Fr, Sa 08:00-18:00 Su 09:00-14:00","page_url":"https:\/\/1hourcartitleloans.com\/locations\/title-loans-bountiful-ut-8490\/"}
{"row_id":53,"name":"TNL Car Title Loans","address":{"addresslocality":"Aurora","postalcode":"60506","addressregion":"IL","addresscountry":"USA"},"telephone":"+1331-425-8501","aggregaterating":{"ratingcount":"15","ratingvalue":"5"},"pricerange":"$2500 - $50000","description":"We offer small and medium sized auto title loans to the local community. Lowest rates in the state coupled with fast service makes us the right choice every time","openinghours":"Mo, Tu, We, Th, Fr, Sa 08:00-18:00 Su 09:00-14:00","page_url":"https:\/\/1hourcartitleloans.com\/locations\/title-loans-aurora-il-8501\/"}
{"row_id":54,"name":"TNL Car Title Loans","address":{"postalcode":"45219","addresscountry":"USA","addressregion":"OH","addresslocality":"Cincinnati"},"telephone":"+1513-589-9742","aggregaterating":{"ratingcount":"15","ratingvalue":"5"},"pricerange":"$2500 - $50000","description":"We offer small and medium sized auto title loans to the local community. Lowest rates in the state coupled with fast service makes us the right choice every time","openinghours":"Mo, Tu, We, Th, Fr, Sa 08:00-18:00 Su 09:00-14:00","page_url":"https:\/\/1hourcartitleloans.com\/locations\/title-loans-cincinnati-oh-9742\/"}
{"row_id":55,"name":"TNL Car Title Loans","address":{"addresslocality":"Palatine","postalcode":"60074","addressregion":"IL","addresscountry":"USA"},"telephone":"+1224-801-1775","aggregaterating":{"ratingcount":"15","ratingvalue":"5"},"pricerange":"$2500 - $50000","description":"We offer small and medium sized auto title loans to the local community. Lowest rates in the state coupled with fast service makes us the right choice every time","openinghours":"Mo, Tu, We, Th, Fr, Sa 08:00-18:00 Su 09:00-14:00","page_url":"https:\/\/1hourcartitleloans.com\/locations\/title-loans-palatine-il-1775\/"}
{"row_id":56,"name":"TNL Car Title Loans","address":{"addresslocality":"Torrance","addresscountry":"USA","postalcode":"90501","addressregion":"CA"},"telephone":"+1424-271-0722","aggregaterating":{"ratingcount":"15","ratingvalue":"5"},"pricerange":"$2500 - $50000","description":"We offer small and medium sized auto title loans to the local community. Lowest rates in the state coupled with fast service makes us the right choice every time","openinghours":"Mo, Tu, We, Th, Fr, Sa 08:00-18:00 Su 09:00-14:00","page_url":"https:\/\/1hourcartitleloans.com\/locations\/title-loans-torrance-ca-0722\/"}
{"row_id":57,"name":"TNL Car Title Loans","address":{"addresslocality":"Deltona","addresscountry":"USA","postalcode":"32738","addressregion":"FL"},"telephone":"+1386-516-0717","aggregaterating":{"ratingcount":"15","ratingvalue":"5"},"pricerange":"$2500 - $50000","description":"We offer small and medium sized auto title loans to the local community. Lowest rates in the state coupled with fast service makes us the right choice every time","openinghours":"Mo, Tu, We, Th, Fr, Sa 08:00-18:00 Su 09:00-14:00","page_url":"https:\/\/1hourcartitleloans.com\/locations\/title-loans-deltona-fl-0717\/"}
{"row_id":58,"name":"TNL Car Title Loans","address":{"addresslocality":"Deerfield Beach","addresscountry":"USA","postalcode":"33442","addressregion":"FL"},"telephone":"+1754-757-0662","aggregaterating":{"ratingcount":"15","ratingvalue":"5"},"pricerange":"$2500 - $50000","description":"We offer small and medium sized auto title loans to the local community. Lowest rates in the state coupled with fast service makes us the right choice every time","openinghours":"Mo, Tu, We, Th, Fr, Sa 08:00-18:00 Su 09:00-14:00","page_url":"https:\/\/1hourcartitleloans.com\/locations\/title-loans-deerfield-beach-fl-0662\/"}
{"row_id":59,"name":"TNL Car Title Loans","address":{"addresslocality":"Brentwood","addresscountry":"USA","postalcode":"94513","addressregion":"CA"},"telephone":"+1925-390-3779","aggregaterating":{"ratingcount":"15","ratingvalue":"5"},"pricerange":"$2500 - $50000","description":"We offer small and medium sized auto title loans to the local community. Lowest rates in the state coupled with fast service makes us the right choice every time","openinghours":"Mo, Tu, We, Th, Fr, Sa 08:00-18:00 Su 09:00-14:00","page_url":"https:\/\/1hourcartitleloans.com\/locations\/title-loans-brentwood-ca-3779\/"}
{"row_id":60,"name":"TNL Car Title Loans","address":{"addresscountry":"USA","addressregion":"FL","addresslocality":"Coconut Creek","postalcode":"33066"},"telephone":"+1954-543-0152","aggregaterating":{"ratingcount":"15","ratingvalue":"5"},"pricerange":"$2500 - $50000","description":"We offer small and medium sized auto title loans to the local community. Lowest rates in the state coupled with fast service makes us the right choice every time","openinghours":"Mo, Tu, We, Th, Fr, Sa 08:00-18:00 Su 09:00-14:00","page_url":"https:\/\/1hourcartitleloans.com\/locations\/title-loans-coconut-creek-fl-0152\/"}
{"row_id":61,"name":"TNL Car Title Loans","address":{"addresslocality":"Tucson","addresscountry":"USA","addressregion":"AZ","postalcode":"85711"},"telephone":"+1520-276-2333","aggregaterating":{"ratingcount":"15","ratingvalue":"5"},"pricerange":"$2500 - $50000","description":"We offer small and medium sized auto title loans to the local community. Lowest rates in the state coupled with fast service makes us the right choice every time","openinghours":"Mo, Tu, We, Th, Fr, Sa 08:00-18:00 Su 09:00-14:00","page_url":"https:\/\/1hourcartitleloans.com\/locations\/title-loans-tucson-az-2333\/"}
{"row_id":62,"name":"TNL Car Title Loans","address":{"postalcode":"73130","addressregion":"OK","addresscountry":"USA","addresslocality":"Midwest City"},"telephone":"+1405-455-8322","aggregaterating":{"ratingcount":"15","ratingvalue":"5"},"pricerange":"$2500 - $50000","description":"We offer small and medium sized auto title loans to the local community. Lowest rates in the state coupled with fast service makes us the right choice every time","openinghours":"Mo, Tu, We, Th, Fr, Sa 08:00-18:00 Su 09:00-14:00","page_url":"https:\/\/1hourcartitleloans.com\/locations\/title-loans-midwest-city-ok-8322\/"}
{"row_id":63,"name":"TNL Car Title Loans","address":{"addresscountry":"USA","addresslocality":"Grand Prairie","postalcode":"75051","addressregion":"TX"},"telephone":"+1469-860-9966","aggregaterating":{"ratingcount":"15","ratingvalue":"5"},"pricerange":"$2500 - $50000","description":"We offer small and medium sized auto title loans to the local community. Lowest rates in the state coupled with fast service makes us the right choice every time","openinghours":"Mo, Tu, We, Th, Fr, Sa 08:00-18:00 Su 09:00-14:00","page_url":"https:\/\/1hourcartitleloans.com\/locations\/title-loans-grand-prairie-tx-9966\/"}
{"row_id":64,"name":"TNL Car Title Loans","address":{"addresslocality":"Long Beach","postalcode":"90815","addresscountry":"USA","addressregion":"CA"},"telephone":"+1562-380-0577","aggregaterating":{"ratingcount":"15","ratingvalue":"5"},"pricerange":"$2500 - $50000","description":"We offer small and medium sized auto title loans to the local community. Lowest rates in the state coupled with fast service makes us the right choice every time","openinghours":"Mo, Tu, We, Th, Fr, Sa 08:00-18:00 Su 09:00-14:00","page_url":"https:\/\/1hourcartitleloans.com\/locations\/title-loans-long-beach-ca-0577\/"}
{"row_id":65,"name":"TNL Car Title Loans","address":{"postalcode":"32207","addresscountry":"USA","addressregion":"FL","addresslocality":"Jacksonville"},"telephone":"+1904-544-4262","aggregaterating":{"ratingcount":"15","ratingvalue":"5"},"pricerange":"$2500 - $50000","description":"We offer small and medium sized auto title loans to the local community. Lowest rates in the state coupled with fast service makes us the right choice every time","openinghours":"Mo, Tu, We, Th, Fr, Sa 08:00-18:00 Su 09:00-14:00","page_url":"https:\/\/1hourcartitleloans.com\/locations\/title-loans-jacksonville-fl-4262\/"}
{"row_id":66,"name":"TNL Car Title Loans","address":{"addresscountry":"USA","postalcode":"91950","addresslocality":"National City","addressregion":"CA"},"telephone":"+1619-731-0404","aggregaterating":{"ratingcount":"15","ratingvalue":"5"},"pricerange":"$2500 - $50000","description":"We offer small and medium sized auto title loans to the local community. Lowest rates in the state coupled with fast service makes us the right choice every time","openinghours":"Mo, Tu, We, Th, Fr, Sa 08:00-18:00 Su 09:00-14:00","page_url":"https:\/\/1hourcartitleloans.com\/locations\/title-loans-national-city-ca-0404\/"}
{"row_id":67,"name":"TNL Car Title Loans","address":{"addresslocality":"Normal","postalcode":"61761","addressregion":"IL","addresscountry":"USA"},"telephone":"+1309-322-2131","aggregaterating":{"ratingcount":"15","ratingvalue":"5"},"pricerange":"$2500 - $50000","description":"We offer small and medium sized auto title loans to the local community. Lowest rates in the state coupled with fast service makes us the right choice every time","openinghours":"Mo, Tu, We, Th, Fr, Sa 08:00-18:00 Su 09:00-14:00","page_url":"https:\/\/1hourcartitleloans.com\/locations\/title-loans-normal-il-2131\/"}
{"row_id":68,"name":"TNL Car Title Loans","address":{"postalcode":"90405","addresscountry":"USA","addresslocality":"Santa Monica","addressregion":"CA"},"telephone":"+1424-259-1922","aggregaterating":{"ratingcount":"15","ratingvalue":"5"},"pricerange":"$2500 - $50000","description":"We offer small and medium sized auto title loans to the local community. Lowest rates in the state coupled with fast service makes us the right choice every time","openinghours":"Mo, Tu, We, Th, Fr, Sa 08:00-18:00 Su 09:00-14:00","page_url":"https:\/\/1hourcartitleloans.com\/locations\/title-loans-santa-monica-ca-1922\/"}
{"row_id":69,"name":"TNL Car Title Loans","address":{"postalcode":"95610","addresslocality":"Citrus Heights","addresscountry":"USA","addressregion":"CA"},"telephone":"+1916-866-5775","aggregaterating":{"ratingcount":"15","ratingvalue":"5"},"pricerange":"$2500 - $50000","description":"We offer small and medium sized auto title loans to the local community. Lowest rates in the state coupled with fast service makes us the right choice every time","openinghours":"Mo, Tu, We, Th, Fr, Sa 08:00-18:00 Su 09:00-14:00","page_url":"https:\/\/1hourcartitleloans.com\/locations\/title-loans-citrus-heights-ca-5775\/"}
{"row_id":70,"name":"TNL Car Title Loans","address":{"postalcode":"62226","addresscountry":"USA","addressregion":"IL","addresslocality":"Belleville"},"telephone":"+1618-744-0393","aggregaterating":{"ratingcount":"15","ratingvalue":"5"},"pricerange":"$2500 - $50000","description":"We offer small and medium sized auto title loans to the local community. Lowest rates in the state coupled with fast service makes us the right choice every time","openinghours":"Mo, Tu, We, Th, Fr, Sa 08:00-18:00 Su 09:00-14:00","page_url":"https:\/\/1hourcartitleloans.com\/locations\/title-loans-belleville-il-0393\/"}
{"row_id":71,"name":"TNL Car Title Loans","address":{"addresslocality":"Artesia","addresscountry":"USA","postalcode":"90701","addressregion":"CA"},"telephone":"+1562-376-6622","aggregaterating":{"ratingcount":"15","ratingvalue":"5"},"pricerange":"$2500 - $50000","description":"We offer small and medium sized auto title loans to the local community. Lowest rates in the state coupled with fast service makes us the right choice every time","openinghours":"Mo, Tu, We, Th, Fr, Sa 08:00-18:00 Su 09:00-14:00","page_url":"https:\/\/1hourcartitleloans.com\/locations\/title-loans-artesia-ca-6622\/"}
{"row_id":72,"name":"TNL Car Title Loans","address":{"addresslocality":"Cuyahoga Falls","addresscountry":"USA","postalcode":"44223","addressregion":"OH"},"telephone":"+1330-558-1043","aggregaterating":{"ratingcount":"15","ratingvalue":"5"},"pricerange":"$2500 - $50000","description":"We offer small and medium sized auto title loans to the local community. Lowest rates in the state coupled with fast service makes us the right choice every time","openinghours":"Mo, Tu, We, Th, Fr, Sa 08:00-18:00 Su 09:00-14:00","page_url":"https:\/\/1hourcartitleloans.com\/locations\/title-loans-cuyahoga-falls-oh-1043\/"}
{"row_id":73,"name":"TNL Car Title Loans","address":{"addresscountry":"USA","addresslocality":"Bradenton","addressregion":"TX","postalcode":"34205"},"telephone":"+1941-529-7015","aggregaterating":{"ratingcount":"15","ratingvalue":"5"},"pricerange":"$2500 - $50000","description":"We offer small and medium sized auto title loans to the local community. Lowest rates in the state coupled with fast service makes us the right choice every time","openinghours":"Mo, Tu, We, Th, Fr, Sa 08:00-18:00 Su 09:00-14:00","page_url":"https:\/\/1hourcartitleloans.com\/locations\/title-loans-bradenton-fl-7015\/"}
{"row_id":74,"name":"TNL Car Title Loans","address":{"addresslocality":"Inglewood","addresscountry":"USA","postalcode":"90304","addressregion":"CA"},"telephone":"+1424-261-0655","aggregaterating":{"ratingcount":"15","ratingvalue":"5"},"pricerange":"$2500 - $50000","description":"We offer small and medium sized auto title loans to the local community. Lowest rates in the state coupled with fast service makes us the right choice every time","openinghours":"Mo, Tu, We, Th, Fr, Sa 08:00-18:00 Su 09:00-14:00","page_url":"https:\/\/1hourcartitleloans.com\/locations\/title-loans-inglewood-ca-0655\/"}
{"row_id":75,"name":"TNL Car Title Loans","address":{"postalcode":"94568","addresslocality":"Dublin","addresscountry":"USA","addressregion":"CA"},"telephone":"+1925-452-6118","aggregaterating":{"ratingcount":"15","ratingvalue":"5"},"pricerange":"$2500 - $50000","description":"We offer small and medium sized auto title loans to the local community. Lowest rates in the state coupled with fast service makes us the right choice every time","openinghours":"Mo, Tu, We, Th, Fr, Sa 08:00-18:00 Su 09:00-14:00","page_url":"https:\/\/1hourcartitleloans.com\/locations\/title-loans-dublin-ca-6118\/"}
{"row_id":76,"name":"TNL Car Title Loans","address":{"addresslocality":"San Jacinto","addresscountry":"USA","addressregion":"CA","postalcode":"92582"},"telephone":"+1951-474-1009","aggregaterating":{"ratingcount":"15","ratingvalue":"5"},"pricerange":"$2500 - $50000","description":"We offer small and medium sized auto title loans to the local community. Lowest rates in the state coupled with fast service makes us the right choice every time","openinghours":"Mo, Tu, We, Th, Fr, Sa 08:00-18:00 Su 09:00-14:00","page_url":"https:\/\/1hourcartitleloans.com\/locations\/title-loans-san-jacinto-ca-1009\/"}
{"row_id":77,"name":"TNL Car Title Loans","address":{"addresslocality":"Enid","addressregion":"OK","addresscountry":"USA","postalcode":"73701"},"telephone":"+1580-952-3877","aggregaterating":{"ratingcount":"15","ratingvalue":"5"},"pricerange":"$2500 - $50000","description":"We offer small and medium sized auto title loans to the local community. Lowest rates in the state coupled with fast service makes us the right choice every time","openinghours":"Mo, Tu, We, Th, Fr, Sa 08:00-18:00 Su 09:00-14:00","page_url":"https:\/\/1hourcartitleloans.com\/locations\/title-loans-enid-ok-3877\/"}
{"row_id":78,"name":"TNL Car Title Loans","address":{"postalcode":"85260","addresscountry":"USA","addresslocality":"Scottsdale","addressregion":"AZ"},"telephone":"+1480-531-1449","aggregaterating":{"ratingcount":"15","ratingvalue":"5"},"pricerange":"$2500 - $50000","description":"We offer small and medium sized auto title loans to the local community. Lowest rates in the state coupled with fast service makes us the right choice every time","openinghours":"Mo, Tu, We, Th, Fr, Sa 08:00-18:00 Su 09:00-14:00","page_url":"https:\/\/1hourcartitleloans.com\/locations\/title-loans-scottsdale-az-1449\/"}
{"row_id":79,"name":"TNL Car Title Loans","address":{"addresscountry":"USA","postalcode":"78628","addresslocality":"Georgetown","addressregion":"TX"},"telephone":"+1737-240-3353","aggregaterating":{"ratingcount":"15","ratingvalue":"5"},"pricerange":"$2500 - $50000","description":"We offer small and medium sized auto title loans to the local community. Lowest rates in the state coupled with fast service makes us the right choice every time","openinghours":"Mo, Tu, We, Th, Fr, Sa 08:00-18:00 Su 09:00-14:00","page_url":"https:\/\/1hourcartitleloans.com\/locations\/title-loans-georgetown-tx-3353\/"}
{"row_id":80,"name":"TNL Car Title Loans","address":{"addresslocality":"Findlay","postalcode":"45840","addresscountry":"USA","addressregion":"OH"},"telephone":"+1419-408-3452","aggregaterating":{"ratingcount":"15","ratingvalue":"5"},"pricerange":"$2500 - $50000","description":"We offer small and medium sized auto title loans to the local community. Lowest rates in the state coupled with fast service makes us the right choice every time","openinghours":"Mo, Tu, We, Th, Fr, Sa 08:00-18:00 Su 09:00-14:00","page_url":"https:\/\/1hourcartitleloans.com\/locations\/title-loans-findlay-oh-3452\/"}
{"row_id":81,"name":"TNL Car Title Loans","address":{"addresslocality":"Coral Gables","postalcode":"33134","addresscountry":"USA","addressregion":"FL"},"telephone":"+1786-697-0746","aggregaterating":{"ratingcount":"15","ratingvalue":"5"},"pricerange":"$2500 - $50000","description":"We offer small and medium sized auto title loans to the local community. Lowest rates in the state coupled with fast service makes us the right choice every time","openinghours":"Mo, Tu, We, Th, Fr, Sa 08:00-18:00 Su 09:00-14:00","page_url":"https:\/\/1hourcartitleloans.com\/locations\/title-loans-coral-gables-fl-0746\/"}
{"row_id":82,"name":"TNL Car Title Loans","address":{"postalcode":"90660","addresscountry":"USA","addresslocality":"Pico Rivera","addressregion":"CA"},"telephone":"+1562-395-0055","aggregaterating":{"ratingcount":"15","ratingvalue":"5"},"pricerange":"$2500 - $50000","description":"We offer small and medium sized auto title loans to the local community. Lowest rates in the state coupled with fast service makes us the right choice every time","openinghours":"Mo, Tu, We, Th, Fr, Sa 08:00-18:00 Su 09:00-14:00","page_url":"https:\/\/1hourcartitleloans.com\/locations\/title-loans-pico-rivera-ca-0055\/"}
{"row_id":83,"name":"TNL Car Title Loans","address":{"addressregion":"KS","addresscountry":"USA","postalcode":"67401","addresslocality":"Salina"},"telephone":"+1785-278-0223","aggregaterating":{"ratingcount":"15","ratingvalue":"5"},"pricerange":"$2500 - $50000","description":"We offer small and medium sized auto title loans to the local community. Lowest rates in the state coupled with fast service makes us the right choice every time","openinghours":"Mo, Tu, We, Th, Fr, Sa 08:00-18:00 Su 09:00-14:00","page_url":"https:\/\/1hourcartitleloans.com\/locations\/title-loans-salina-ks-0223\/"}
{"row_id":84,"name":"TNL Car Title Loans","address":{"addresslocality":"Hoover","addresscountry":"USA","postalcode":"35226","addressregion":"AL"},"telephone":"+1205-484-9906","aggregaterating":{"ratingcount":"15","ratingvalue":"5"},"pricerange":"$2500 - $50000","description":"We offer small and medium sized auto title loans to the local community. Lowest rates in the state coupled with fast service makes us the right choice every time","openinghours":"Mo, Tu, We, Th, Fr, Sa 08:00-18:00 Su 09:00-14:00","page_url":"https:\/\/1hourcartitleloans.com\/locations\/title-loans-hoover-al-9906\/"}
{"row_id":85,"name":"TNL Car Title Loans","address":{"addresslocality":"Apple Valley","addresscountry":"USA","postalcode":"92307","addressregion":"CA"},"telephone":"+1760-503-5466","aggregaterating":{"ratingcount":"15","ratingvalue":"5"},"pricerange":"$2500 - $50000","description":"We offer small and medium sized auto title loans to the local community. Lowest rates in the state coupled with fast service makes us the right choice every time","openinghours":"Mo, Tu, We, Th, Fr, Sa 08:00-18:00 Su 09:00-14:00","page_url":"https:\/\/1hourcartitleloans.com\/locations\/title-loans-apple-valley-ca-5466\/"}
{"row_id":86,"name":"TNL Car Title Loans","address":{"addressregion":"KY","addresslocality":"Louisville","addresscountry":"USA","postalcode":"40207"},"telephone":"+1502-485-5727","aggregaterating":{"ratingcount":"15","ratingvalue":"5"},"pricerange":"$2500 - $50000","description":"We offer small and medium sized auto title loans to the local community. Lowest rates in the state coupled with fast service makes us the right choice every time","openinghours":"Mo, Tu, We, Th, Fr, Sa 08:00-18:00 Su 09:00-14:00","page_url":"https:\/\/1hourcartitleloans.com\/locations\/title-loans-louisville-ky-5727\/"}
{"row_id":87,"name":"TNL Car Title Loans","address":{"postalcode":"33805","addresscountry":"USA","addressregion":"FL","addresslocality":"Lakeland"},"telephone":"+1863-510-7838","aggregaterating":{"ratingcount":"15","ratingvalue":"5"},"pricerange":"$2500 - $50000","description":"We offer small and medium sized auto title loans to the local community. Lowest rates in the state coupled with fast service makes us the right choice every time","openinghours":"Mo, Tu, We, Th, Fr, Sa 08:00-18:00 Su 09:00-14:00","page_url":"https:\/\/1hourcartitleloans.com\/locations\/title-loans-lakeland-fl-7838\/"}
{"row_id":88,"name":"TNL Car Title Loans","address":{"addresslocality":"Montgomery","addresscountry":"USA","postalcode":"36106","addressregion":"AL"},"telephone":"+1334-523-6998","aggregaterating":{"ratingcount":"15","ratingvalue":"5"},"pricerange":"$2500 - $50000","description":"We offer small and medium sized auto title loans to the local community. Lowest rates in the state coupled with fast service makes us the right choice every time","openinghours":"Mo, Tu, We, Th, Fr, Sa 08:00-18:00 Su 09:00-14:00","page_url":"https:\/\/1hourcartitleloans.com\/locations\/title-loans-montgomery-al-6998\/"}
{"row_id":89,"name":"TNL Car Title Loans","address":{"addresscountry":"USA","addressregion":"CA","postalcode":"94306","addresslocality":"Palo Alto"},"telephone":"+1650-561-6988","aggregaterating":{"ratingcount":"15","ratingvalue":"5"},"pricerange":"$2500 - $50000","description":"We offer small and medium sized auto title loans to the local community. Lowest rates in the state coupled with fast service makes us the right choice every time","openinghours":"Mo, Tu, We, Th, Fr, Sa 08:00-18:00 Su 09:00-14:00","page_url":"https:\/\/1hourcartitleloans.com\/locations\/title-loans-palo-alto-ca-6988\/"}
{"row_id":90,"name":"TNL Car Title Loans","address":{"addresslocality":"Auburn","addresscountry":"USA","postalcode":"36830","addressregion":"AL"},"telephone":"+1334-758-0062","aggregaterating":{"ratingcount":"15","ratingvalue":"5"},"pricerange":"$2500 - $50000","description":"We offer small and medium sized auto title loans to the local community. Lowest rates in the state coupled with fast service makes us the right choice every time","openinghours":"Mo, Tu, We, Th, Fr, Sa 08:00-18:00 Su 09:00-14:00","page_url":"https:\/\/1hourcartitleloans.com\/locations\/title-loans-auburn-al-0062\/"}
{"row_id":91,"name":"TNL Car Title Loans","address":{"addresscountry":"USA","postalcode":"43110","addressregion":"OH","addresslocality":"Canal Winchester"},"telephone":"+1614-908-2733","aggregaterating":{"ratingcount":"15","ratingvalue":"5"},"pricerange":"$2500 - $50000","description":"We offer small and medium sized auto title loans to the local community. Lowest rates in the state coupled with fast service makes us the right choice every time","openinghours":"Mo, Tu, We, Th, Fr, Sa 08:00-18:00 Su 09:00-14:00","page_url":"https:\/\/1hourcartitleloans.com\/locations\/title-loans-canal-winchester-oh-2733\/"}
{"row_id":92,"name":"TNL Car Title Loans","address":{"postalcode":"97222","addresscountry":"USA","addressregion":"OR","addresslocality":"Milwaukie"},"telephone":"+1971-353-6779","aggregaterating":{"ratingcount":"15","ratingvalue":"5"},"pricerange":"$2500 - $50000","description":"We offer small and medium sized auto title loans to the local community. Lowest rates in the state coupled with fast service makes us the right choice every time","openinghours":"Mo, Tu, We, Th, Fr, Sa 08:00-18:00 Su 09:00-14:00","page_url":"https:\/\/1hourcartitleloans.com\/locations\/title-loans-milwaukie-or-6779\/"}
{"row_id":93,"name":"TNL Car Title Loans","address":{"addresscountry":"USA","addressregion":"CA","postalcode":"92405","addresslocality":"San Bernardino"},"telephone":"+1909-601-6272","aggregaterating":{"ratingcount":"15","ratingvalue":"5"},"pricerange":"$2500 - $50000","description":"We offer small and medium sized auto title loans to the local community. Lowest rates in the state coupled with fast service makes us the right choice every time","openinghours":"Mo, Tu, We, Th, Fr, Sa 08:00-18:00 Su 09:00-14:00","page_url":"https:\/\/1hourcartitleloans.com\/locations\/title-loans-san-bernardino-ca-6272\/"}
{"row_id":94,"name":"TNL Car Title Loans","address":{"postalcode":"35406","addresscountry":"USA","addresslocality":"Tuscaloosa","addressregion":"AL"},"telephone":"+1205-409-9913","aggregaterating":{"ratingcount":"15","ratingvalue":"5"},"pricerange":"$2500 - $50000","description":"We offer small and medium sized auto title loans to the local community. Lowest rates in the state coupled with fast service makes us the right choice every time","openinghours":"Mo, Tu, We, Th, Fr, Sa 08:00-18:00 Su 09:00-14:00","page_url":"https:\/\/1hourcartitleloans.com\/locations\/title-loans-tuscaloosa-al-9913\/"}
{"row_id":95,"name":"TNL Car Title Loans","address":{"postalcode":"92606","addresscountry":"USA","addressregion":"CA","addresslocality":"Irvine"},"telephone":"+1714-984-6659","aggregaterating":{"ratingcount":"15","ratingvalue":"5"},"pricerange":"$2500 - $50000","description":"We offer small and medium sized auto title loans to the local community. Lowest rates in the state coupled with fast service makes us the right choice every time","openinghours":"Mo, Tu, We, Th, Fr, Sa 08:00-18:00 Su 09:00-14:00","page_url":"https:\/\/1hourcartitleloans.com\/locations\/title-loans-irvine-ca-6659\/"}
{"row_id":96,"name":"TNL Car Title Loans","address":{"addressregion":"NM","addresslocality":"Farmington","postalcode":"87402","addresscountry":"USA"},"telephone":"+1505-278-0705","aggregaterating":{"ratingcount":"15","ratingvalue":"5"},"pricerange":"$2500 - $50000","description":"We offer small and medium sized auto title loans to the local community. Lowest rates in the state coupled with fast service makes us the right choice every time","openinghours":"Mo, Tu, We, Th, Fr, Sa 08:00-18:00 Su 09:00-14:00","page_url":"https:\/\/1hourcartitleloans.com\/locations\/title-loans-farmington-nm-0705\/"}
{"row_id":97,"name":"TNL Car Title Loans","address":{"addressregion":"MS","addresscountry":"USA","addresslocality":"Meridian","postalcode":"39301"},"telephone":"+1601-207-4780","aggregaterating":{"ratingcount":"15","ratingvalue":"5"},"pricerange":"$2500 - $50000","description":"We offer small and medium sized auto title loans to the local community. Lowest rates in the state coupled with fast service makes us the right choice every time","openinghours":"Mo, Tu, We, Th, Fr, Sa 08:00-18:00 Su 09:00-14:00","page_url":"https:\/\/1hourcartitleloans.com\/locations\/title-loans-meridian-ms-4780\/"}
{"row_id":98,"name":"TNL Car Title Loans","address":{"addresslocality":"Pearland","addresscountry":"USA","addressregion":"TX","postalcode":"77584"},"telephone":"+1346-415-4229","aggregaterating":{"ratingcount":"15","ratingvalue":"5"},"pricerange":"$2500 - $50000","description":"We offer small and medium sized auto title loans to the local community. Lowest rates in the state coupled with fast service makes us the right choice every time","openinghours":"Mo, Tu, We, Th, Fr, Sa 08:00-18:00 Su 09:00-14:00","page_url":"https:\/\/1hourcartitleloans.com\/locations\/title-loans-pearland-tx-4229\/"}
{"row_id":99,"name":"TNL Car Title Loans","address":{"addressregion":"MI","addresslocality":"Southfield","addresscountry":"USA","postalcode":"48033"},"telephone":"+1947-282-4733","aggregaterating":{"ratingcount":"15","ratingvalue":"5"},"pricerange":"$2500 - $50000","description":"We offer small and medium sized auto title loans to the local community. Lowest rates in the state coupled with fast service makes us the right choice every time","openinghours":"Mo, Tu, We, Th, Fr, Sa 08:00-18:00 Su 09:00-14:00","page_url":"https:\/\/1hourcartitleloans.com\/locations\/title-loans-southfield-mi-4733\/"}
{"row_id":100,"name":"TNL Car Title Loans","address":{"addressregion":"CA","addresscountry":"USA","addresslocality":"Davis","postalcode":"95616"},"telephone":"+1530-341-3882","aggregaterating":{"ratingcount":"15","ratingvalue":"5"},"pricerange":"$2500 - $50000","description":"We offer small and medium sized auto title loans to the local community. Lowest rates in the state coupled with fast service makes us the right choice every time","openinghours":"Mo, Tu, We, Th, Fr, Sa 08:00-18:00 Su 09:00-14:00","page_url":"https:\/\/1hourcartitleloans.com\/locations\/title-loans-davis-ca-3882\/"}
{"row_id":101,"name":"TNL Car Title Loans","address":{"addressregion":"MI","postalcode":"49015","addresscountry":"USA","addresslocality":"Battle Creek"},"telephone":"+1269-234-7252","aggregaterating":{"ratingcount":"15","ratingvalue":"5"},"pricerange":"$2500 - $50000","description":"We offer small and medium sized auto title loans to the local community. Lowest rates in the state coupled with fast service makes us the right choice every time","openinghours":"Mo, Tu, We, Th, Fr, Sa 08:00-18:00 Su 09:00-14:00","page_url":"https:\/\/1hourcartitleloans.com\/locations\/title-loans-battle-creek-mi-7252\/"}
{"row_id":102,"name":"TNL Car Title Loans","address":{"addresslocality":"Delano","addresscountry":"USA","postalcode":"93215","addressregion":"CA"},"telephone":"+1661-561-9818","aggregaterating":{"ratingcount":"15","ratingvalue":"5"},"pricerange":"$2500 - $50000","description":"We offer small and medium sized auto title loans to the local community. Lowest rates in the state coupled with fast service makes us the right choice every time","openinghours":"Mo, Tu, We, Th, Fr, Sa 08:00-18:00 Su 09:00-14:00","page_url":"https:\/\/1hourcartitleloans.com\/locations\/title-loans-delano-ca-9818\/"}
{"row_id":103,"name":"TNL Car Title Loans","address":{"addresslocality":"Florence","addresscountry":"USA","postalcode":"35630","addressregion":"AL"},"telephone":"+1256-648-4727","aggregaterating":{"ratingcount":"15","ratingvalue":"5"},"pricerange":"$2500 - $50000","description":"We offer small and medium sized auto title loans to the local community. Lowest rates in the state coupled with fast service makes us the right choice every time","openinghours":"Mo, Tu, We, Th, Fr, Sa 08:00-18:00 Su 09:00-14:00","page_url":"https:\/\/1hourcartitleloans.com\/locations\/title-loans-florence-al-4727\/"}
{"row_id":104,"name":"TNL Car Title Loans","address":{"addresscountry":"USA","addresslocality":"Fountain Valley","postalcode":"92708","addressregion":"CA"},"telephone":"+1657-215-8262","aggregaterating":{"ratingcount":"15","ratingvalue":"5"},"pricerange":"$2500 - $50000","description":"We offer small and medium sized auto title loans to the local community. Lowest rates in the state coupled with fast service makes us the right choice every time","openinghours":"Mo, Tu, We, Th, Fr, Sa 08:00-18:00 Su 09:00-14:00","page_url":"https:\/\/1hourcartitleloans.com\/locations\/title-loans-fountain-valley-ca-8262\/"}
{"row_id":105,"name":"TNL Car Title Loans","address":{"addresslocality":"Colton","postalcode":"92324","addresscountry":"USA","addressregion":"CA"},"telephone":"+1909-699-1990","aggregaterating":{"ratingcount":"15","ratingvalue":"5"},"pricerange":"$2500 - $50000","description":"We offer small and medium sized auto title loans to the local community. Lowest rates in the state coupled with fast service makes us the right choice every time","openinghours":"Mo, Tu, We, Th, Fr, Sa 08:00-18:00 Su 09:00-14:00","page_url":"https:\/\/1hourcartitleloans.com\/locations\/title-loans-colton-ca-1990\/"}
{"row_id":106,"name":"TNL Car Title Loans","address":{"addressregion":"CA","addresscountry":"USA","addresslocality":"Bell","postalcode":"90201"},"telephone":"+1323-435-1433","aggregaterating":{"ratingcount":"15","ratingvalue":"5"},"pricerange":"$2500 - $50000","description":"We offer small and medium sized auto title loans to the local community. Lowest rates in the state coupled with fast service makes us the right choice every time","openinghours":"Mo, Tu, We, Th, Fr, Sa 08:00-18:00 Su 09:00-14:00","page_url":"https:\/\/1hourcartitleloans.com\/locations\/title-loans-bell-ca-1433\/"}
{"row_id":107,"name":"TNL Car Title Loans","address":{"addresscountry":"USA","postalcode":"93003","addressregion":"CA","addresslocality":"Ventura"},"telephone":"+1805-292-2290","aggregaterating":{"ratingcount":"15","ratingvalue":"5"},"pricerange":"$2500 - $50000","description":"We offer small and medium sized auto title loans to the local community. Lowest rates in the state coupled with fast service makes us the right choice every time","openinghours":"Mo, Tu, We, Th, Fr, Sa 08:00-18:00 Su 09:00-14:00","page_url":"https:\/\/1hourcartitleloans.com\/locations\/title-loans-ventura-ca-2290\/"}
{"row_id":108,"name":"TNL Car Title Loans","address":{"postalcode":"92886","addresscountry":"USA","addresslocality":"Yorba Linda","addressregion":"CA"},"telephone":"+1657-366-1878","aggregaterating":{"ratingcount":"15","ratingvalue":"5"},"pricerange":"$2500 - $50000","description":"We offer small and medium sized auto title loans to the local community. Lowest rates in the state coupled with fast service makes us the right choice every time","openinghours":"Mo, Tu, We, Th, Fr, Sa 08:00-18:00 Su 09:00-14:00","page_url":"https:\/\/1hourcartitleloans.com\/locations\/title-loans-yorba-linda-ca-1878\/"}
{"row_id":109,"name":"TNL Car Title Loans","address":{"postalcode":"46320","addresscountry":"USA","addresslocality":"Hammond","addressregion":"IN"},"telephone":"+1219-228-7132","aggregaterating":{"ratingcount":"15","ratingvalue":"5"},"pricerange":"$2500 - $50000","description":"We offer small and medium sized auto title loans to the local community. Lowest rates in the state coupled with fast service makes us the right choice every time","openinghours":"Mo, Tu, We, Th, Fr, Sa 08:00-18:00 Su 09:00-14:00","page_url":"https:\/\/1hourcartitleloans.com\/locations\/title-loans-hammond-in-7132\/"}
{"row_id":110,"name":"TNL Car Title Loans","address":{"addressregion":"IL","addresscountry":"USA","addresslocality":"Chicago","postalcode":"60611"},"telephone":"+1872-264-4535","aggregaterating":{"ratingcount":"15","ratingvalue":"5"},"pricerange":"$2500 - $50000","description":"We offer small and medium sized auto title loans to the local community. Lowest rates in the state coupled with fast service makes us the right choice every time","openinghours":"Mo, Tu, We, Th, Fr, Sa 08:00-18:00 Su 09:00-14:00","page_url":"https:\/\/1hourcartitleloans.com\/locations\/title-loans-chicago-il-4535\/"}
{"row_id":111,"name":"TNL Car Title Loans","address":{"postalcode":"93436","addresscountry":"USA","addresslocality":"Lompoc","addressregion":"CA"},"telephone":"+1805-944-1795","aggregaterating":{"ratingcount":"15","ratingvalue":"5"},"pricerange":"$2500 - $50000","description":"We offer small and medium sized auto title loans to the local community. Lowest rates in the state coupled with fast service makes us the right choice every time","openinghours":"Mo, Tu, We, Th, Fr, Sa 08:00-18:00 Su 09:00-14:00","page_url":"https:\/\/1hourcartitleloans.com\/locations\/title-loans-lompoc-ca-1795\/"}
{"row_id":112,"name":"TNL Car Title Loans","address":{"postalcode":"92056","addresscountry":"USA","addresslocality":"Oceanside","addressregion":"CA"},"telephone":"+1442-287-0082","aggregaterating":{"ratingcount":"15","ratingvalue":"5"},"pricerange":"$2500 - $50000","description":"We offer small and medium sized auto title loans to the local community. Lowest rates in the state coupled with fast service makes us the right choice every time","openinghours":"Mo, Tu, We, Th, Fr, Sa 08:00-18:00 Su 09:00-14:00","page_url":"https:\/\/1hourcartitleloans.com\/locations\/title-loans-oceanside-ca-0082\/"}
{"row_id":113,"name":"TNL Car Title Loans","address":{"postalcode":"46601","addresslocality":"South Bend","addresscountry":"USA","addressregion":"IN"},"telephone":"+1574-236-9177","aggregaterating":{"ratingcount":"15","ratingvalue":"5"},"pricerange":"$2500 - $50000","description":"We offer small and medium sized auto title loans to the local community. Lowest rates in the state coupled with fast service makes us the right choice every time","openinghours":"Mo, Tu, We, Th, Fr, Sa 08:00-18:00 Su 09:00-14:00","page_url":"https:\/\/1hourcartitleloans.com\/locations\/title-loans-south-bend-in-177\/"}
{"row_id":114,"name":"TNL Car Title Loans","address":{"addressregion":"MI","addresscountry":"USA","addresslocality":"Saginaw","postalcode":"48602"},"telephone":"+1989-220-1322","aggregaterating":{"ratingcount":"15","ratingvalue":"5"},"pricerange":"$2500 - $50000","description":"We offer small and medium sized auto title loans to the local community. Lowest rates in the state coupled with fast service makes us the right choice every time","openinghours":"Mo, Tu, We, Th, Fr, Sa 08:00-18:00 Su 09:00-14:00","page_url":"https:\/\/1hourcartitleloans.com\/locations\/title-loans-saginaw-mi-322\/"}
{"row_id":115,"name":"TNL Car Title Loans","address":{"postalcode":"73501","addressregion":"OK","addresscountry":"USA","addresslocality":"Lawton"},"telephone":"+1580-952-4226","aggregaterating":{"ratingcount":"15","ratingvalue":"5"},"pricerange":"$2500 - $50000","description":"We offer small and medium sized auto title loans to the local community. Lowest rates in the state coupled with fast service makes us the right choice every time","openinghours":"Mo, Tu, We, Th, Fr, Sa 08:00-18:00 Su 09:00-14:00","page_url":"https:\/\/1hourcartitleloans.com\/locations\/title-loans-lawton-ok-4226\/"}
{"row_id":116,"name":"TNL Car Title Loans","address":{"postalcode":"95661","addresscountry":"USA","addresslocality":"Roseville","addressregion":"CA"},"telephone":"+1916-866-5788","aggregaterating":{"ratingcount":"15","ratingvalue":"5"},"pricerange":"$2500 - $50000","description":"We offer small and medium sized auto title loans to the local community. Lowest rates in the state coupled with fast service makes us the right choice every time","openinghours":"Mo, Tu, We, Th, Fr, Sa 08:00-18:00 Su 09:00-14:00","page_url":"https:\/\/1hourcartitleloans.com\/locations\/title-loans-roseville-ca-5788\/"}
{"row_id":117,"name":"TNL Car Title Loans","address":{"addresslocality":"Kissimmee","addresscountry":"USA","addressregion":"FL","postalcode":"34741"},"telephone":"+1321-587-9545","aggregaterating":{"ratingcount":"15","ratingvalue":"5"},"pricerange":"$2500 - $50000","description":"We offer small and medium sized auto title loans to the local community. Lowest rates in the state coupled with fast service makes us the right choice every time","openinghours":"Mo, Tu, We, Th, Fr, Sa 08:00-18:00 Su 09:00-14:00","page_url":"https:\/\/1hourcartitleloans.com\/locations\/title-loans-kissimmee-fl-9545\/"}
{"row_id":118,"name":"TNL Car Title Loans","address":{"addresscountry":"USA","addressregion":"UT","addresslocality":"Miami Gardens","postalcode":"33055"},"telephone":"+1786-699-0855","aggregaterating":{"ratingcount":"15","ratingvalue":"5"},"pricerange":"$2500 - $50000","description":"We offer small and medium sized auto title loans to the local community. Lowest rates in the state coupled with fast service makes us the right choice every time","openinghours":"Mo, Tu, We, Th, Fr, Sa 08:00-18:00 Su 09:00-14:00","page_url":"https:\/\/1hourcartitleloans.com\/locations\/title-loans-miami-gardens-fl-0855\/"}
{"row_id":119,"name":"TNL Car Title Loans","address":{"addresscountry":"USA","postalcode":"90232","addresslocality":"Culver City","addressregion":"CA"},"telephone":"+1424-255-5588","aggregaterating":{"ratingcount":"15","ratingvalue":"5"},"pricerange":"$2500 - $50000","description":"We offer small and medium sized auto title loans to the local community. Lowest rates in the state coupled with fast service makes us the right choice every time","openinghours":"Mo, Tu, We, Th, Fr, Sa 08:00-18:00 Su 09:00-14:00","page_url":"https:\/\/1hourcartitleloans.com\/locations\/title-loans-culver-city-ca-5588\/"}
{"row_id":120,"name":"TNL Car Title Loans","address":{"postalcode":"23451","addresslocality":"Virginia Beach","addressregion":"VA","addresscountry":"USA"},"telephone":"+1757-366-2199","aggregaterating":{"ratingcount":"15","ratingvalue":"5"},"pricerange":"$2500 - $50000","description":"We offer small and medium sized auto title loans to the local community. Lowest rates in the state coupled with fast service makes us the right choice every time","openinghours":"Mo, Tu, We, Th, Fr, Sa 08:00-18:00 Su 09:00-14:00","page_url":"https:\/\/1hourcartitleloans.com\/locations\/title-loans-virginia-beach-va-2199\/"}
{"row_id":121,"name":"TNL Car Title Loans","address":{"addresscountry":"USA","postalcode":"92705","addresslocality":"Santa Ana","addressregion":"CA"},"telephone":"+1657-205-7655","aggregaterating":{"ratingcount":"15","ratingvalue":"5"},"pricerange":"$2500 - $50000","description":"We offer small and medium sized auto title loans to the local community. Lowest rates in the state coupled with fast service makes us the right choice every time","openinghours":"Mo, Tu, We, Th, Fr, Sa 08:00-18:00 Su 09:00-14:00","page_url":"https:\/\/1hourcartitleloans.com\/locations\/title-loans-santa-ana-ca-7655\/"}
{"row_id":122,"name":"TNL Car Title Loans","address":{"addresslocality":"Pocatello","postalcode":"83201","addresscountry":"USA","addressregion":"ID"},"telephone":"+1208-242-2430","aggregaterating":{"ratingcount":"15","ratingvalue":"5"},"pricerange":"$2500 - $50000","description":"We offer small and medium sized auto title loans to the local community. Lowest rates in the state coupled with fast service makes us the right choice every time","openinghours":"Mo, Tu, We, Th, Fr, Sa 08:00-18:00 Su 09:00-14:00","page_url":"https:\/\/1hourcartitleloans.com\/locations\/title-loans-pocatello-id-2430\/"}
{"row_id":123,"name":"TNL Car Title Loans","address":{"postalcode":"92553","addresscountry":"USA","addresslocality":"Moreno Valley","addressregion":"CA"},"telephone":"+1951-472-3998","aggregaterating":{"ratingcount":"15","ratingvalue":"5"},"pricerange":"$2500 - $50000","description":"We offer small and medium sized auto title loans to the local community. Lowest rates in the state coupled with fast service makes us the right choice every time","openinghours":"Mo, Tu, We, Th, Fr, Sa 08:00-18:00 Su 09:00-14:00","page_url":"https:\/\/1hourcartitleloans.com\/locations\/title-loans-moreno-valley-ca-3998\/"}
{"row_id":124,"name":"TNL Car Title Loans","address":{"addresslocality":"Wichita Falls","postalcode":"76308","addresscountry":"USA","addressregion":"TX"},"telephone":"+1940-247-7442","aggregaterating":{"ratingcount":"15","ratingvalue":"5"},"pricerange":"$2500 - $50000","description":"We offer small and medium sized auto title loans to the local community. Lowest rates in the state coupled with fast service makes us the right choice every time","openinghours":"Mo, Tu, We, Th, Fr, Sa 08:00-18:00 Su 09:00-14:00","page_url":"https:\/\/1hourcartitleloans.com\/locations\/title-loans-wichita-falls-tx-7442\/"}
{"row_id":125,"name":"TNL Car Title Loans","address":{"addresscountry":"USA","addressregion":"FL","addresslocality":"Miramar","postalcode":"33025"},"telephone":"+1754-231-0257","aggregaterating":{"ratingcount":"15","ratingvalue":"5"},"pricerange":"$2500 - $50000","description":"We offer small and medium sized auto title loans to the local community. Lowest rates in the state coupled with fast service makes us the right choice every time","openinghours":"Mo, Tu, We, Th, Fr, Sa 08:00-18:00 Su 09:00-14:00","page_url":"https:\/\/1hourcartitleloans.com\/locations\/title-loans-miramar-fl-0257\/"}
{"row_id":126,"name":"TNL Car Title Loans","address":{"addresscountry":"USA","postalcode":"93710","addresslocality":"Fresno","addressregion":"CA"},"telephone":"+1559-365-6446","aggregaterating":{"ratingcount":"15","ratingvalue":"5"},"pricerange":"$2500 - $50000","description":"We offer small and medium sized auto title loans to the local community. Lowest rates in the state coupled with fast service makes us the right choice every time","openinghours":"Mo, Tu, We, Th, Fr, Sa 08:00-18:00 Su 09:00-14:00","page_url":"https:\/\/1hourcartitleloans.com\/locations\/title-loans-fresno-ca-6446\/"}
{"row_id":127,"name":"TNL Car Title Loans","address":{"addresscountry":"USA","addressregion":"CA","addresslocality":"Bell Gardens","postalcode":"90201"},"telephone":"+1562-459-6626","aggregaterating":{"ratingcount":"15","ratingvalue":"5"},"pricerange":"$2500 - $50000","description":"We offer small and medium sized auto title loans to the local community. Lowest rates in the state coupled with fast service makes us the right choice every time","openinghours":"Mo, Tu, We, Th, Fr, Sa 08:00-18:00 Su 09:00-14:00","page_url":"https:\/\/1hourcartitleloans.com\/locations\/title-loans-bell-gardens-ca-6626\/"}
{"row_id":128,"name":"TNL Car Title Loans","address":{"addressregion":"CA","addresscountry":"USA","postalcode":"94538","addresslocality":"Fremont"},"telephone":"+1341-888-0022","aggregaterating":{"ratingcount":"15","ratingvalue":"5"},"pricerange":"$2500 - $50000","description":"We offer small and medium sized auto title loans to the local community. Lowest rates in the state coupled with fast service makes us the right choice every time","openinghours":"Mo, Tu, We, Th, Fr, Sa 08:00-18:00 Su 09:00-14:00","page_url":"https:\/\/1hourcartitleloans.com\/locations\/title-loans-fremont-ca-0022\/"}
{"row_id":129,"name":"TNL Car Title Loans","address":{"postalcode":"60077","addresscountry":"USA","addressregion":"IL","addresslocality":"Skokie"},"telephone":"+1224-601-5142","aggregaterating":{"ratingcount":"15","ratingvalue":"5"},"pricerange":"$2500 - $50000","description":"We offer small and medium sized auto title loans to the local community. Lowest rates in the state coupled with fast service makes us the right choice every time","openinghours":"Mo, Tu, We, Th, Fr, Sa 08:00-18:00 Su 09:00-14:00","page_url":"https:\/\/1hourcartitleloans.com\/locations\/title-loans-skokie-il-5142\/"}
{"row_id":130,"name":"TNL Car Title Loans","address":{"addresslocality":"Mesa","postalcode":"85206","addresscountry":"USA","addressregion":"AZ"},"telephone":"+1480-536-8188","aggregaterating":{"ratingcount":"15","ratingvalue":"5"},"pricerange":"$2500 - $50000","description":"We offer small and medium sized auto title loans to the local community. Lowest rates in the state coupled with fast service makes us the right choice every time","openinghours":"Mo, Tu, We, Th, Fr, Sa 08:00-18:00 Su 09:00-14:00","page_url":"https:\/\/1hourcartitleloans.com\/locations\/title-loans-mesa-az-8188\/"}
{"row_id":131,"name":"TNL Car Title Loans","address":{"addresslocality":"Lehi","postalcode":"84043","addresscountry":"USA","addressregion":"UT"},"telephone":"+1385-287-8199","aggregaterating":{"ratingcount":"15","ratingvalue":"5"},"pricerange":"$2500 - $50000","description":"We offer small and medium sized auto title loans to the local community. Lowest rates in the state coupled with fast service makes us the right choice every time","openinghours":"Mo, Tu, We, Th, Fr, Sa 08:00-18:00 Su 09:00-14:00","page_url":"https:\/\/1hourcartitleloans.com\/locations\/title-loans-lehi-ut-8199\/"}
{"row_id":132,"name":"TNL Car Title Loans","address":{"addresslocality":"Coronado","addresscountry":"USA","postalcode":"92118","addressregion":"CA"},"telephone":"+1619-996-9555","aggregaterating":{"ratingcount":"15","ratingvalue":"5"},"pricerange":"$2500 - $50000","description":"We offer small and medium sized auto title loans to the local community. Lowest rates in the state coupled with fast service makes us the right choice every time","openinghours":"Mo, Tu, We, Th, Fr, Sa 08:00-18:00 Su 09:00-14:00","page_url":"https:\/\/1hourcartitleloans.com\/locations\/title-loans-coronado-ca-9555\/"}
{"row_id":133,"name":"TNL Car Title Loans","address":{"postalcode":"75089","addresscountry":"USA","addresslocality":"Rowlett","addressregion":"TX"},"telephone":"+1469-825-3919","aggregaterating":{"ratingcount":"15","ratingvalue":"5"},"pricerange":"$2500 - $50000","description":"We offer small and medium sized auto title loans to the local community. Lowest rates in the state coupled with fast service makes us the right choice every time","openinghours":"Mo, Tu, We, Th, Fr, Sa 08:00-18:00 Su 09:00-14:00","page_url":"https:\/\/1hourcartitleloans.com\/locations\/title-loans-rowlett-tx-3919\/"}
{"row_id":134,"name":"TNL Car Title Loans","address":{"addressregion":"MI","addresslocality":"Highland Park","addresscountry":"USA","postalcode":"48203"},"telephone":"+1313-462-0233","aggregaterating":{"ratingcount":"15","ratingvalue":"5"},"pricerange":"$2500 - $50000","description":"We offer small and medium sized auto title loans to the local community. Lowest rates in the state coupled with fast service makes us the right choice every time","openinghours":"Mo, Tu, We, Th, Fr, Sa 08:00-18:00 Su 09:00-14:00","page_url":"https:\/\/1hourcartitleloans.com\/locations\/title-loans-highland-park-mi-0233\/"}
{"row_id":135,"name":"TNL Car Title Loans","address":{"addresslocality":"Edinburg","addresscountry":"USA","postalcode":"78539","addressregion":"TX"},"telephone":"+1956-410-5033","aggregaterating":{"ratingcount":"15","ratingvalue":"5"},"pricerange":"$2500 - $50000","description":"We offer small and medium sized auto title loans to the local community. Lowest rates in the state coupled with fast service makes us the right choice every time","openinghours":"Mo, Tu, We, Th, Fr, Sa 08:00-18:00 Su 09:00-14:00","page_url":"https:\/\/1hourcartitleloans.com\/locations\/title-loans-edinburg-tx-5033\/"}
{"row_id":136,"name":"TNL Car Title Loans","address":{"addresscountry":"USA","postalcode":"95776","addresslocality":"Woodland","addressregion":"CA"},"telephone":"+1530-405-9211","aggregaterating":{"ratingcount":"15","ratingvalue":"5"},"pricerange":"$2500 - $50000","description":"We offer small and medium sized auto title loans to the local community. Lowest rates in the state coupled with fast service makes us the right choice every time","openinghours":"Mo, Tu, We, Th, Fr, Sa 08:00-18:00 Su 09:00-14:00","page_url":"https:\/\/1hourcartitleloans.com\/locations\/title-loans-woodland-ca-9211\/"}
{"row_id":137,"name":"TNL Car Title Loans","address":{"addresslocality":"Keizer","postalcode":"97303","addresscountry":"USA","addressregion":"OR"},"telephone":"+1971-301-2225","aggregaterating":{"ratingcount":"15","ratingvalue":"5"},"pricerange":"$2500 - $50000","description":"We offer small and medium sized auto title loans to the local community. Lowest rates in the state coupled with fast service makes us the right choice every time","openinghours":"Mo, Tu, We, Th, Fr, Sa 08:00-18:00 Su 09:00-14:00","page_url":"https:\/\/1hourcartitleloans.com\/locations\/title-loans-keizer-or-2225\/"}
{"row_id":138,"name":"TNL Car Title Loans","address":{"addresslocality":"Hollywood","addresscountry":"USA","addressregion":"FL","postalcode":"33021"},"telephone":"+1754-231-0250","aggregaterating":{"ratingcount":"15","ratingvalue":"5"},"pricerange":"$2500 - $50000","description":"We offer small and medium sized auto title loans to the local community. Lowest rates in the state coupled with fast service makes us the right choice every time","openinghours":"Mo, Tu, We, Th, Fr, Sa 08:00-18:00 Su 09:00-14:00","page_url":"https:\/\/1hourcartitleloans.com\/locations\/title-loans-hollywood-fl-0250\/"}
{"row_id":139,"name":"TNL Car Title Loans","address":{"addresscountry":"USA","postalcode":"90630","addresslocality":"Cypress","addressregion":"CA"},"telephone":"+1657-213-8404","aggregaterating":{"ratingcount":"15","ratingvalue":"5"},"pricerange":"$2500 - $50000","description":"We offer small and medium sized auto title loans to the local community. Lowest rates in the state coupled with fast service makes us the right choice every time","openinghours":"Mo, Tu, We, Th, Fr, Sa 08:00-18:00 Su 09:00-14:00","page_url":"https:\/\/1hourcartitleloans.com\/locations\/title-loans-cypress-ca-8404\/"}
{"row_id":140,"name":"TNL Car Title Loans","address":{"postalcode":"33774","addresscountry":"USA","addresslocality":"Largo","addressregion":"FL"},"telephone":"+1727-785-2012","aggregaterating":{"ratingcount":"15","ratingvalue":"5"},"pricerange":"$2500 - $50000","description":"We offer small and medium sized auto title loans to the local community. Lowest rates in the state coupled with fast service makes us the right choice every time","openinghours":"Mo, Tu, We, Th, Fr, Sa 08:00-18:00 Su 09:00-14:00","page_url":"https:\/\/1hourcartitleloans.com\/locations\/title-loans-largo-fl-2012\/"}
{"row_id":141,"name":"TNL Car Title Loans","address":{"addresscountry":"USA","addresslocality":"Sun City","postalcode":"92586","addressregion":"CA"},"telephone":"+1951-430-2208","aggregaterating":{"ratingcount":"15","ratingvalue":"5"},"pricerange":"$2500 - $50000","description":"We offer small and medium sized auto title loans to the local community. Lowest rates in the state coupled with fast service makes us the right choice every time","openinghours":"Mo, Tu, We, Th, Fr, Sa 08:00-18:00 Su 09:00-14:00","page_url":"https:\/\/1hourcartitleloans.com\/locations\/title-loans-sun-city-ca-2208\/"}
{"row_id":142,"name":"TNL Car Title Loans","address":{"postalcode":"90603","addresscountry":"USA","addresslocality":"Whittier","addressregion":"CA"},"telephone":"+1562-457-3313","aggregaterating":{"ratingcount":"15","ratingvalue":"5"},"pricerange":"$2500 - $50000","description":"We offer small and medium sized auto title loans to the local community. Lowest rates in the state coupled with fast service makes us the right choice every time","openinghours":"Mo, Tu, We, Th, Fr, Sa 08:00-18:00 Su 09:00-14:00","page_url":"https:\/\/1hourcartitleloans.com\/locations\/title-loans-whittier-ca-3313\/"}
{"row_id":143,"name":"TNL Car Title Loans","address":{"postalcode":"60402","addressregion":"IL","addresscountry":"USA","addresslocality":"Berwyn"},"telephone":"+1708-512-6727","aggregaterating":{"ratingcount":"15","ratingvalue":"5"},"pricerange":"$2500 - $50000","description":"We offer small and medium sized auto title loans to the local community. Lowest rates in the state coupled with fast service makes us the right choice every time","openinghours":"Mo, Tu, We, Th, Fr, Sa 08:00-18:00 Su 09:00-14:00","page_url":"https:\/\/1hourcartitleloans.com\/locations\/title-loans-berwyn-il-6727\/"}
{"row_id":144,"name":"TNL Car Title Loans","address":{"postalcode":"91744","addresscountry":"USA","addressregion":"CA","addresslocality":"La Puente"},"telephone":"+1626-559-0225","aggregaterating":{"ratingcount":"15","ratingvalue":"5"},"pricerange":"$2500 - $50000","description":"We offer small and medium sized auto title loans to the local community. Lowest rates in the state coupled with fast service makes us the right choice every time","openinghours":"Mo, Tu, We, Th, Fr, Sa 08:00-18:00 Su 09:00-14:00","page_url":"https:\/\/1hourcartitleloans.com\/locations\/title-loans-la-puente-ca-0225\/"}
{"row_id":145,"name":"TNL Car Title Loans","address":{"postalcode":"90706","addresscountry":"USA","addressregion":"CA","addresslocality":"Bellflower"},"telephone":"+1562-281-8115","aggregaterating":{"ratingcount":"15","ratingvalue":"5"},"pricerange":"$2500 - $50000","description":"We offer small and medium sized auto title loans to the local community. Lowest rates in the state coupled with fast service makes us the right choice every time","openinghours":"Mo, Tu, We, Th, Fr, Sa 08:00-18:00 Su 09:00-14:00","page_url":"https:\/\/1hourcartitleloans.com\/locations\/title-loans-bellflower-ca-8115\/"}
{"row_id":146,"name":"TNL Car Title Loans","address":{"addresslocality":"Orlando","postalcode":"32806","addresscountry":"USA","addressregion":"FL"},"telephone":"+1321-587-9540","aggregaterating":{"ratingcount":"15","ratingvalue":"5"},"pricerange":"$2500 - $50000","description":"We offer small and medium sized auto title loans to the local community. Lowest rates in the state coupled with fast service makes us the right choice every time","openinghours":"Mo, Tu, We, Th, Fr, Sa 08:00-18:00 Su 09:00-14:00","page_url":"https:\/\/1hourcartitleloans.com\/locations\/title-loans-orlando-fl-9540\/"}
{"row_id":147,"name":"TNL Car Title Loans","address":{"addressregion":"IL","addresscountry":"USA","addresslocality":"Lombard","postalcode":"60148"},"telephone":"+1331-462-0115","aggregaterating":{"ratingcount":"15","ratingvalue":"5"},"pricerange":"$2500 - $50000","description":"We offer small and medium sized auto title loans to the local community. Lowest rates in the state coupled with fast service makes us the right choice every time","openinghours":"Mo, Tu, We, Th, Fr, Sa 08:00-18:00 Su 09:00-14:00","page_url":"https:\/\/1hourcartitleloans.com\/locations\/title-loans-lombard-il-0115\/"}
{"row_id":148,"name":"TNL Car Title Loans","address":{"postalcode":"66614","addressregion":"KS","addresscountry":"USA","addresslocality":"Topeka"},"telephone":"+1785-289-2664","aggregaterating":{"ratingcount":"15","ratingvalue":"5"},"pricerange":"$2500 - $50000","description":"We offer small and medium sized auto title loans to the local community. Lowest rates in the state coupled with fast service makes us the right choice every time","openinghours":"Mo, Tu, We, Th, Fr, Sa 08:00-18:00 Su 09:00-14:00","page_url":"https:\/\/1hourcartitleloans.com\/locations\/title-loans-topeka-ks-2664\/"}
{"row_id":149,"name":"TNL Car Title Loans","address":{"addresslocality":"South Jordan","addresscountry":"USA","addressregion":"UT","postalcode":"84095"},"telephone":"+1385-276-0454","aggregaterating":{"ratingcount":"15","ratingvalue":"5"},"pricerange":"$2500 - $50000","description":"We offer small and medium sized auto title loans to the local community. Lowest rates in the state coupled with fast service makes us the right choice every time","openinghours":"Mo, Tu, We, Th, Fr, Sa 08:00-18:00 Su 09:00-14:00","page_url":"https:\/\/1hourcartitleloans.com\/locations\/title-loans-south-jordan-ut-0454\/"}
{"row_id":150,"name":"TNL Car Title Loans","address":{"postalcode":"33308","addresscountry":"USA","addressregion":"FL","addresslocality":"Fort Lauderdale"},"telephone":"+1954-504-9828","aggregaterating":{"ratingcount":"15","ratingvalue":"5"},"pricerange":"$2500 - $50000","description":"We offer small and medium sized auto title loans to the local community. Lowest rates in the state coupled with fast service makes us the right choice every time","openinghours":"Mo, Tu, We, Th, Fr, Sa 08:00-18:00 Su 09:00-14:00","page_url":"https:\/\/1hourcartitleloans.com\/locations\/title-loans-fort-lauderdale-fl-9828\/"}
{"row_id":151,"name":"TNL Car Title Loans","address":{"addressregion":"SD","addresscountry":"USA","addresslocality":"Sioux Falls","postalcode":"57105"},"telephone":"+1605-305-4101","aggregaterating":{"ratingcount":"15","ratingvalue":"5"},"pricerange":"$2500 - $50000","description":"We offer small and medium sized auto title loans to the local community. Lowest rates in the state coupled with fast service makes us the right choice every time","openinghours":"Mo, Tu, We, Th, Fr, Sa 08:00-18:00 Su 09:00-14:00","page_url":"https:\/\/1hourcartitleloans.com\/locations\/title-loans-sioux-falls-sd-4101\/"}
{"row_id":152,"name":"TNL Car Title Loans","address":{"addresscountry":"USA","postalcode":"93638","addresslocality":"Madera","addressregion":"CA"},"telephone":"+1559-373-0211","aggregaterating":{"ratingcount":"15","ratingvalue":"5"},"pricerange":"$2500 - $50000","description":"We offer small and medium sized auto title loans to the local community. Lowest rates in the state coupled with fast service makes us the right choice every time","openinghours":"Mo, Tu, We, Th, Fr, Sa 08:00-18:00 Su 09:00-14:00","page_url":"https:\/\/1hourcartitleloans.com\/locations\/title-loans-madera-ca-0211\/"}
{"row_id":153,"name":"TNL Car Title Loans","address":{"addresscountry":"USA","addresslocality":"Carlsbad","postalcode":"92008","addressregion":"CA"},"telephone":"+1442-325-0050","aggregaterating":{"ratingcount":"15","ratingvalue":"5"},"pricerange":"$2500 - $50000","description":"We offer small and medium sized auto title loans to the local community. Lowest rates in the state coupled with fast service makes us the right choice every time","openinghours":"Mo, Tu, We, Th, Fr, Sa 08:00-18:00 Su 09:00-14:00","page_url":"https:\/\/1hourcartitleloans.com\/locations\/title-loans-carlsbad-ca-0050\/"}
{"row_id":154,"name":"TNL Car Title Loans","address":{"addresslocality":"Flower Mound","addresscountry":"USA","postalcode":"75028","addressregion":"TX"},"telephone":"+1469-830-1255","aggregaterating":{"ratingcount":"15","ratingvalue":"5"},"pricerange":"$2500 - $50000","description":"We offer small and medium sized auto title loans to the local community. Lowest rates in the state coupled with fast service makes us the right choice every time","openinghours":"Mo, Tu, We, Th, Fr, Sa 08:00-18:00 Su 09:00-14:00","page_url":"https:\/\/1hourcartitleloans.com\/locations\/title-loans-flower-mound-tx-1255\/"}
{"row_id":155,"name":"TNL Car Title Loans","address":{"postalcode":"23502","addresscountry":"USA","addressregion":"VA","addresslocality":"Norfolk"},"telephone":"+1757-324-3416","aggregaterating":{"ratingcount":"15","ratingvalue":"5"},"pricerange":"$2500 - $50000","description":"We offer small and medium sized auto title loans to the local community. Lowest rates in the state coupled with fast service makes us the right choice every time","openinghours":"Mo, Tu, We, Th, Fr, Sa 08:00-18:00 Su 09:00-14:00","page_url":"https:\/\/1hourcartitleloans.com\/locations\/title-loans-norfolk-va-3416\/"}
{"row_id":156,"name":"TNL Car Title Loans","address":{"addresscountry":"USA","addresslocality":"Stockton","postalcode":"95212","addressregion":"CA"},"telephone":"+1209-800-2630","aggregaterating":{"ratingcount":"15","ratingvalue":"5"},"pricerange":"$2500 - $50000","description":"We offer small and medium sized auto title loans to the local community. Lowest rates in the state coupled with fast service makes us the right choice every time","openinghours":"Mo, Tu, We, Th, Fr, Sa 08:00-18:00 Su 09:00-14:00","page_url":"https:\/\/1hourcartitleloans.com\/locations\/title-loans-stockton-ca-2630\/"}
{"row_id":157,"name":"TNL Car Title Loans","address":{"addresslocality":"Vacaville","addresscountry":"USA","addressregion":"CA","postalcode":"95687"},"telephone":"+1707-359-7605","aggregaterating":{"ratingcount":"15","ratingvalue":"5"},"pricerange":"$2500 - $50000","description":"We offer small and medium sized auto title loans to the local community. Lowest rates in the state coupled with fast service makes us the right choice every time","openinghours":"Mo, Tu, We, Th, Fr, Sa 08:00-18:00 Su 09:00-14:00","page_url":"https:\/\/1hourcartitleloans.com\/locations\/title-loans-vacaville-ca-7605\/"}
{"row_id":158,"name":"TNL Car Title Loans","address":{"addresscountry":"USA","postalcode":"33486","addresslocality":"Boca Raton","addressregion":"FL"},"telephone":"+1561-835-5411","aggregaterating":{"ratingcount":"15","ratingvalue":"5"},"pricerange":"$2500 - $50000","description":"We offer small and medium sized auto title loans to the local community. Lowest rates in the state coupled with fast service makes us the right choice every time","openinghours":"Mo, Tu, We, Th, Fr, Sa 08:00-18:00 Su 09:00-14:00","page_url":"https:\/\/1hourcartitleloans.com\/locations\/title-loans-boca-raton-fl-5411\/"}
{"row_id":159,"name":"TNL Car Title Loans","address":{"postalcode":"90280","addresslocality":"South Gate","addresscountry":"USA","addressregion":"CA"},"telephone":"+1323-435-1488","aggregaterating":{"ratingcount":"15","ratingvalue":"5"},"pricerange":"$2500 - $50000","description":"We offer small and medium sized auto title loans to the local community. Lowest rates in the state coupled with fast service makes us the right choice every time","openinghours":"Mo, Tu, We, Th, Fr, Sa 08:00-18:00 Su 09:00-14:00","page_url":"https:\/\/1hourcartitleloans.com\/locations\/title-loans-south-gate-ca-1488\/"}
{"row_id":160,"name":"TNL Car Title Loans","address":{"postalcode":"91731","addresscountry":"USA","addresslocality":"El Monte","addressregion":"CA"},"telephone":"+1626-522-8005","aggregaterating":{"ratingcount":"15","ratingvalue":"5"},"pricerange":"$2500 - $50000","description":"We offer small and medium sized auto title loans to the local community. Lowest rates in the state coupled with fast service makes us the right choice every time","openinghours":"Mo, Tu, We, Th, Fr, Sa 08:00-18:00 Su 09:00-14:00","page_url":"https:\/\/1hourcartitleloans.com\/locations\/title-loans-el-monte-ca-8005\/"}
{"row_id":161,"name":"TNL Car Title Loans","address":{"addresslocality":"Twin Lakes","addresscountry":"USA","postalcode":"83301","addressregion":"ID"},"telephone":"+1208-352-6799","aggregaterating":{"ratingcount":"15","ratingvalue":"5"},"pricerange":"$2500 - $50000","description":"We offer small and medium sized auto title loans to the local community. Lowest rates in the state coupled with fast service makes us the right choice every time","openinghours":"Mo, Tu, We, Th, Fr, Sa 08:00-18:00 Su 09:00-14:00","page_url":"https:\/\/1hourcartitleloans.com\/locations\/title-loans-twin-falls-id-6799\/"}
{"row_id":162,"name":"TNL Car Title Loans","address":{"addresslocality":"Gainesville","addresscountry":"USA","addressregion":"FL","postalcode":"32607"},"telephone":"+1352-415-0062","aggregaterating":{"ratingcount":"15","ratingvalue":"5"},"pricerange":"$2500 - $50000","description":"We offer small and medium sized auto title loans to the local community. Lowest rates in the state coupled with fast service makes us the right choice every time","openinghours":"Mo, Tu, We, Th, Fr, Sa 08:00-18:00 Su 09:00-14:00","page_url":"https:\/\/1hourcartitleloans.com\/locations\/title-loans-gainesville-fl-0062\/"}
{"row_id":163,"name":"TNL Car Title Loans","address":{"postalcode":"95337","addresscountry":"USA","addresslocality":"Manteca","addressregion":"CA"},"telephone":"+1209-288-0499","aggregaterating":{"ratingcount":"15","ratingvalue":"5"},"pricerange":"$2500 - $50000","description":"We offer small and medium sized auto title loans to the local community. Lowest rates in the state coupled with fast service makes us the right choice every time","openinghours":"Mo, Tu, We, Th, Fr, Sa 08:00-18:00 Su 09:00-14:00","page_url":"https:\/\/1hourcartitleloans.com\/locations\/title-loans-manteca-ca-0499\/"}
{"row_id":164,"name":"TNL Car Title Loans","address":{"postalcode":"32308","addresslocality":"Tallahassee","addresscountry":"USA","addressregion":"FL"},"telephone":"+1850-848-9322","aggregaterating":{"ratingcount":"15","ratingvalue":"5"},"pricerange":"$2500 - $50000","description":"We offer small and medium sized auto title loans to the local community. Lowest rates in the state coupled with fast service makes us the right choice every time","openinghours":"Mo, Tu, We, Th, Fr, Sa 08:00-18:00 Su 09:00-14:00","page_url":"https:\/\/1hourcartitleloans.com\/locations\/title-loans-tallahassee-fl-9322\/"}
{"row_id":165,"name":"TNL Car Title Loans","address":{"addresscountry":"USA","addresslocality":"Flagstaff","addressregion":"AZ","postalcode":"86004"},"telephone":"+1928-216-3071","aggregaterating":{"ratingcount":"15","ratingvalue":"5"},"pricerange":"$2500 - $50000","description":"We offer small and medium sized auto title loans to the local community. Lowest rates in the state coupled with fast service makes us the right choice every time","openinghours":"Mo, Tu, We, Th, Fr, Sa 08:00-18:00 Su 09:00-14:00","page_url":"https:\/\/1hourcartitleloans.com\/locations\/title-loans-flagstaff-az-3071\/"}
{"row_id":166,"name":"TNL Car Title Loans","address":{"postalcode":"33063","addresscountry":"USA","addressregion":"FL","addresslocality":"Margate"},"telephone":"+1754-444-3324","aggregaterating":{"ratingcount":"15","ratingvalue":"5"},"pricerange":"$2500 - $50000","description":"We offer small and medium sized auto title loans to the local community. Lowest rates in the state coupled with fast service makes us the right choice every time","openinghours":"Mo, Tu, We, Th, Fr, Sa 08:00-18:00 Su 09:00-14:00","page_url":"https:\/\/1hourcartitleloans.com\/locations\/title-loans-margate-fl-3324\/"}
{"row_id":167,"name":"TNL Car Title Loans","address":{"addresslocality":"Camarillo","addresscountry":"USA","postalcode":"93012","addressregion":"CA"},"telephone":"+1805-292-2303","aggregaterating":{"ratingcount":"15","ratingvalue":"5"},"pricerange":"$2500 - $50000","description":"We offer small and medium sized auto title loans to the local community. Lowest rates in the state coupled with fast service makes us the right choice every time","openinghours":"Mo, Tu, We, Th, Fr, Sa 08:00-18:00 Su 09:00-14:00","page_url":"https:\/\/1hourcartitleloans.com\/locations\/title-loans-camarillo-ca-2303\/"}
{"row_id":168,"name":"TNL Car Title Loans","address":{"postalcode":"60192","addressregion":"IL","addresscountry":"USA","addresslocality":"Hoffman Estates"},"telephone":"+1630-523-9266","aggregaterating":{"ratingcount":"15","ratingvalue":"5"},"pricerange":"$2500 - $50000","description":"We offer small and medium sized auto title loans to the local community. Lowest rates in the state coupled with fast service makes us the right choice every time","openinghours":"Mo, Tu, We, Th, Fr, Sa 08:00-18:00 Su 09:00-14:00","page_url":"https:\/\/1hourcartitleloans.com\/locations\/title-loans-hoffman-estates-il-9266\/"}
{"row_id":169,"name":"TNL Car Title Loans","address":{"addressregion":"MI","postalcode":"48334","addresscountry":"USA","addresslocality":"Farmington Hills"},"telephone":"+1947-207-0705","aggregaterating":{"ratingcount":"15","ratingvalue":"5"},"pricerange":"$2500 - $50000","description":"We offer small and medium sized auto title loans to the local community. Lowest rates in the state coupled with fast service makes us the right choice every time","openinghours":"Mo, Tu, We, Th, Fr, Sa 08:00-18:00 Su 09:00-14:00","page_url":"https:\/\/1hourcartitleloans.com\/locations\/title-loans-farmington-hills-mi-0705\/"}
{"row_id":170,"name":"TNL Car Title Loans","address":{"addressregion":"MI","addresscountry":"USA","postalcode":"48185","addresslocality":"Westland"},"telephone":"+1682-382-0699","aggregaterating":{"ratingcount":"15","ratingvalue":"5"},"pricerange":"$2500 - $50000","description":"We offer small and medium sized auto title loans to the local community. Lowest rates in the state coupled with fast service makes us the right choice every time","openinghours":"Mo, Tu, We, Th, Fr, Sa 08:00-18:00 Su 09:00-14:00","page_url":"https:\/\/1hourcartitleloans.com\/locations\/title-loans-livonia-mi-4119-2\/"}
{"row_id":171,"name":"TNL Car Title Loans","address":{"addresslocality":"Delray Beach","addresscountry":"USA","postalcode":"33483","addressregion":"FL"},"telephone":"+1561-462-0905","aggregaterating":{"ratingcount":"15","ratingvalue":"5"},"pricerange":"$2500 - $50000","description":"We offer small and medium sized auto title loans to the local community. Lowest rates in the state coupled with fast service makes us the right choice every time","openinghours":"Mo, Tu, We, Th, Fr, Sa 08:00-18:00 Su 09:00-14:00","page_url":"https:\/\/1hourcartitleloans.com\/locations\/title-loans-delray-beach-fl-0905\/"}
{"row_id":172,"name":"TNL Car Title Loans","address":{"addresslocality":"Pensacola","addresscountry":"USA","addressregion":"FL","postalcode":"32503"},"telephone":"+1850-898-1144","aggregaterating":{"ratingcount":"15","ratingvalue":"5"},"pricerange":"$2500 - $50000","description":"We offer small and medium sized auto title loans to the local community. Lowest rates in the state coupled with fast service makes us the right choice every time","openinghours":"Mo, Tu, We, Th, Fr, Sa 08:00-18:00 Su 09:00-14:00","page_url":"https:\/\/1hourcartitleloans.com\/locations\/title-loans-pensacola-fl-1144\/"}
{"row_id":173,"name":"TNL Car Title Loans","address":{"addresslocality":"Youngstown","postalcode":"44505","addresscountry":"USA","addressregion":"OH"},"telephone":"+1234-241-1050","aggregaterating":{"ratingcount":"15","ratingvalue":"5"},"pricerange":"$2500 - $50000","description":"We offer small and medium sized auto title loans to the local community. Lowest rates in the state coupled with fast service makes us the right choice every time","openinghours":"Mo, Tu, We, Th, Fr, Sa 08:00-18:00 Su 09:00-14:00","page_url":"https:\/\/1hourcartitleloans.com\/locations\/title-loans-youngstown-oh-1050\/"}
{"row_id":174,"name":"TNL Car Title Loans","address":{"addresslocality":"Victorville","addresscountry":"USA","postalcode":"92392","addressregion":"CA"},"telephone":"+1442-255-5770","aggregaterating":{"ratingcount":"15","ratingvalue":"5"},"pricerange":"$2500 - $50000","description":"We offer small and medium sized auto title loans to the local community. Lowest rates in the state coupled with fast service makes us the right choice every time","openinghours":"Mo, Tu, We, Th, Fr, Sa 08:00-18:00 Su 09:00-14:00","page_url":"https:\/\/1hourcartitleloans.com\/locations\/title-loans-victorville-ca-5770\/"}
{"row_id":175,"name":"TNL Car Title Loans","address":{"postalcode":"94518","addresscountry":"USA","addresslocality":"Concord","addressregion":"CA"},"telephone":"+1925-412-4833","aggregaterating":{"ratingcount":"15","ratingvalue":"5"},"pricerange":"$2500 - $50000","description":"We offer small and medium sized auto title loans to the local community. Lowest rates in the state coupled with fast service makes us the right choice every time","openinghours":"Mo, Tu, We, Th, Fr, Sa 08:00-18:00 Su 09:00-14:00","page_url":"https:\/\/1hourcartitleloans.com\/locations\/title-loans-concord-ca-4833\/"}
{"row_id":176,"name":"TNL Car Title Loans","address":{"postalcode":"94704","addresslocality":"Berkeley","addresscountry":"USA","addressregion":"CA"},"telephone":"+1510-646-1955","aggregaterating":{"ratingcount":"15","ratingvalue":"5"},"pricerange":"$2500 - $50000","description":"We offer small and medium sized auto title loans to the local community. Lowest rates in the state coupled with fast service makes us the right choice every time","openinghours":"Mo, Tu, We, Th, Fr, Sa 08:00-18:00 Su 09:00-14:00","page_url":"https:\/\/1hourcartitleloans.com\/locations\/title-loans-berkeley-ca-1955\/"}
{"row_id":177,"name":"TNL Car Title Loans","address":{"postalcode":"36303","addresscountry":"USA","addresslocality":"Dothan","addressregion":"AL"},"telephone":"+1334-458-1877","aggregaterating":{"ratingcount":"15","ratingvalue":"5"},"pricerange":"$2500 - $50000","description":"We offer small and medium sized auto title loans to the local community. Lowest rates in the state coupled with fast service makes us the right choice every time","openinghours":"Mo, Tu, We, Th, Fr, Sa 08:00-18:00 Su 09:00-14:00","page_url":"https:\/\/1hourcartitleloans.com\/locations\/title-loans-dothan-al-1877\/"}
{"row_id":178,"name":"TNL Car Title Loans","address":{"addresscountry":"USA","addresslocality":"Escondido","postalcode":"92025","addressregion":"CA"},"telephone":"+1442-286-0656","aggregaterating":{"ratingcount":"15","ratingvalue":"5"},"pricerange":"$2500 - $50000","description":"We offer small and medium sized auto title loans to the local community. Lowest rates in the state coupled with fast service makes us the right choice every time","openinghours":"Mo, Tu, We, Th, Fr, Sa 08:00-18:00 Su 09:00-14:00","page_url":"https:\/\/1hourcartitleloans.com\/locations\/title-loans-escondido-ca-0656\/"}
{"row_id":179,"name":"TNL Car Title Loans","address":{"addresscountry":"USA","addresslocality":"Glendora","postalcode":"91740","addressregion":"CA"},"telephone":"+1626-515-6080","aggregaterating":{"ratingcount":"15","ratingvalue":"5"},"pricerange":"$2500 - $50000","description":"We offer small and medium sized auto title loans to the local community. Lowest rates in the state coupled with fast service makes us the right choice every time","openinghours":"Mo, Tu, We, Th, Fr, Sa 08:00-18:00 Su 09:00-14:00","page_url":"https:\/\/1hourcartitleloans.com\/locations\/title-loans-glendora-ca-6080\/"}
{"row_id":180,"name":"TNL Car Title Loans","address":{"addressregion":"SD","addresscountry":"USA","postalcode":"57701","addresslocality":"Rapid City"},"telephone":"+1605-389-3811","aggregaterating":{"ratingcount":"15","ratingvalue":"5"},"pricerange":"$2500 - $50000","description":"We offer small and medium sized auto title loans to the local community. Lowest rates in the state coupled with fast service makes us the right choice every time","openinghours":"Mo, Tu, We, Th, Fr, Sa 08:00-18:00 Su 09:00-14:00","page_url":"https:\/\/1hourcartitleloans.com\/locations\/title-loans-rapid-city-sd-3811\/"}
{"row_id":181,"name":"TNL Car Title Loans","address":{"addresslocality":"Pittsburg","postalcode":"94565","addresscountry":"USA","addressregion":"CA"},"telephone":"+1925-526-0606","aggregaterating":{"ratingcount":"15","ratingvalue":"5"},"pricerange":"$2500 - $50000","description":"We offer small and medium sized auto title loans to the local community. Lowest rates in the state coupled with fast service makes us the right choice every time","openinghours":"Mo, Tu, We, Th, Fr, Sa 08:00-18:00 Su 09:00-14:00","page_url":"https:\/\/1hourcartitleloans.com\/locations\/title-loans-pittsburg-ca-0606\/"}
{"row_id":182,"name":"TNL Car Title Loans","address":{"addressregion":"IL","addresscountry":"USA","addresslocality":"Crystal Lake","postalcode":"60014"},"telephone":"+1779-220-0906","aggregaterating":{"ratingcount":"15","ratingvalue":"5"},"pricerange":"$2500 - $50000","description":"We offer small and medium sized auto title loans to the local community. Lowest rates in the state coupled with fast service makes us the right choice every time","openinghours":"Mo, Tu, We, Th, Fr, Sa 08:00-18:00 Su 09:00-14:00","page_url":"https:\/\/1hourcartitleloans.com\/locations\/title-loans-crystal-lake-il-0906\/"}
{"row_id":183,"name":"TNL Car Title Loans","address":{"postalcode":"84041","addresslocality":"Layton","addresscountry":"USA","addressregion":"UT"},"telephone":"+1385-303-9070","aggregaterating":{"ratingcount":"15","ratingvalue":"5"},"pricerange":"$2500 - $50000","description":"We offer small and medium sized auto title loans to the local community. Lowest rates in the state coupled with fast service makes us the right choice every time","openinghours":"Mo, Tu, We, Th, Fr, Sa 08:00-18:00 Su 09:00-14:00","page_url":"https:\/\/1hourcartitleloans.com\/locations\/title-loans-layton-ut-9070\/"}
{"row_id":184,"name":"TNL Car Title Loans","address":{"addresslocality":"La Habra","addresscountry":"USA","postalcode":"90631","addressregion":"CA"},"telephone":"+1562-383-6003","aggregaterating":{"ratingcount":"15","ratingvalue":"5"},"pricerange":"$2500 - $50000","description":"We offer small and medium sized auto title loans to the local community. Lowest rates in the state coupled with fast service makes us the right choice every time","openinghours":"Mo, Tu, We, Th, Fr, Sa 08:00-18:00 Su 09:00-14:00","page_url":"https:\/\/1hourcartitleloans.com\/locations\/title-loans-la-habra-ca-6003\/"}
{"row_id":185,"name":"TNL Car Title Loans","address":{"addresslocality":"Santee","addresscountry":"USA","postalcode":"92071","addressregion":"CA"},"telephone":"+1619-728-6557","aggregaterating":{"ratingcount":"15","ratingvalue":"5"},"pricerange":"$2500 - $50000","description":"We offer small and medium sized auto title loans to the local community. Lowest rates in the state coupled with fast service makes us the right choice every time","openinghours":"Mo, Tu, We, Th, Fr, Sa 08:00-18:00 Su 09:00-14:00","page_url":"https:\/\/1hourcartitleloans.com\/locations\/title-loans-santee-ca-6557\/"}
{"row_id":186,"name":"TNL Car Title Loans","address":{"postalcode":"78572","addresscountry":"USA","addresslocality":"Mission","addressregion":"TX"},"telephone":"+1956-529-1636","aggregaterating":{"ratingcount":"15","ratingvalue":"5"},"pricerange":"$2500 - $50000","description":"We offer small and medium sized auto title loans to the local community. Lowest rates in the state coupled with fast service makes us the right choice every time","openinghours":"Mo, Tu, We, Th, Fr, Sa 08:00-18:00 Su 09:00-14:00","page_url":"https:\/\/1hourcartitleloans.com\/locations\/title-loans-mission-tx-1636\/"}
{"row_id":187,"name":"TNL Car Title Loans","address":{"addresslocality":"Buena Park","addresscountry":"USA","postalcode":"90620","addressregion":"CA"},"telephone":"+1714-984-6515","aggregaterating":{"ratingcount":"15","ratingvalue":"5"},"pricerange":"$2500 - $50000","description":"We offer small and medium sized auto title loans to the local community. Lowest rates in the state coupled with fast service makes us the right choice every time","openinghours":"Mo, Tu, We, Th, Fr, Sa 08:00-18:00 Su 09:00-14:00","page_url":"https:\/\/1hourcartitleloans.com\/locations\/title-loans-buena-park-ca-6515\/"}
{"row_id":188,"name":"TNL Car Title Loans","address":{"addresslocality":"San Jose","addresscountry":"USA","postalcode":"95128","addressregion":"CA"},"telephone":"+1669-247-0998","aggregaterating":{"ratingcount":"15","ratingvalue":"5"},"pricerange":"$2500 - $50000","description":"We offer small and medium sized auto title loans to the local community. Lowest rates in the state coupled with fast service makes us the right choice every time","openinghours":"Mo, Tu, We, Th, Fr, Sa 08:00-18:00 Su 09:00-14:00","page_url":"https:\/\/1hourcartitleloans.com\/locations\/title-loans-san-jose-ca-0998\/"}
{"row_id":189,"name":"TNL Car Title Loans","address":{"addresscountry":"USA","addresslocality":"Van Nuys","addressregion":"CA","postalcode":"91406"},"telephone":"+1747-262-3113","aggregaterating":{"ratingcount":"15","ratingvalue":"5"},"pricerange":"$2500 - $50000","description":"We offer small and medium sized auto title loans to the local community. Lowest rates in the state coupled with fast service makes us the right choice every time","openinghours":"Mo, Tu, We, Th, Fr, Sa 08:00-18:00 Su 09:00-14:00","page_url":"https:\/\/1hourcartitleloans.com\/locations\/title-loans-van-nuys-ca-3113\/"}
{"row_id":190,"name":"TNL Car Title Loans","address":{"addresscountry":"USA","addressregion":"UT","addresslocality":"Orem","postalcode":"84057"},"telephone":"+1385-203-7020","aggregaterating":{"ratingcount":"15","ratingvalue":"5"},"pricerange":"$2500 - $50000","description":"We offer small and medium sized auto title loans to the local community. Lowest rates in the state coupled with fast service makes us the right choice every time","openinghours":"Mo, Tu, We, Th, Fr, Sa 08:00-18:00 Su 09:00-14:00","page_url":"https:\/\/1hourcartitleloans.com\/locations\/title-loans-orem-ut-7020\/"}
{"row_id":191,"name":"TNL Car Title Loans","address":{"postalcode":"67502","addresscountry":"USA","addressregion":"KS","addresslocality":"Hutchinson"},"telephone":"+1620-266-1223","aggregaterating":{"ratingcount":"15","ratingvalue":"5"},"pricerange":"$2500 - $50000","description":"We offer small and medium sized auto title loans to the local community. Lowest rates in the state coupled with fast service makes us the right choice every time","openinghours":"Mo, Tu, We, Th, Fr, Sa 08:00-18:00 Su 09:00-14:00","page_url":"https:\/\/1hourcartitleloans.com\/locations\/title-loans-hutchinson-ks-1223\/"}
{"row_id":192,"name":"TNL Car Title Loans","address":{"addresslocality":"New Braunfels","addresscountry":"USA","addressregion":"TX","postalcode":"78132"},"telephone":"+1830-302-4464","aggregaterating":{"ratingcount":"15","ratingvalue":"5"},"pricerange":"$2500 - $50000","description":"We offer small and medium sized auto title loans to the local community. Lowest rates in the state coupled with fast service makes us the right choice every time","openinghours":"Mo, Tu, We, Th, Fr, Sa 08:00-18:00 Su 09:00-14:00","page_url":"https:\/\/1hourcartitleloans.com\/locations\/title-loans-new-braunfels-tx-4464\/"}
{"row_id":193,"name":"TNL Car Title Loans","address":{"addresslocality":"Beaverton","addresscountry":"USA","postalcode":"97008","addressregion":"OR"},"telephone":"+1971-238-9009","aggregaterating":{"ratingcount":"15","ratingvalue":"5"},"pricerange":"$2500 - $50000","description":"We offer small and medium sized auto title loans to the local community. Lowest rates in the state coupled with fast service makes us the right choice every time","openinghours":"Mo, Tu, We, Th, Fr, Sa 08:00-18:00 Su 09:00-14:00","page_url":"https:\/\/1hourcartitleloans.com\/locations\/title-loans-beaverton-or-9009\/"}
{"row_id":194,"name":"TNL Car Title Loans","address":{"addresslocality":"Goodyear","addresscountry":"USA","postalcode":"85395","addressregion":"AZ"},"telephone":"+1480-573-1714","aggregaterating":{"ratingcount":"15","ratingvalue":"5"},"pricerange":"$2500 - $50000","description":"We offer small and medium sized auto title loans to the local community. Lowest rates in the state coupled with fast service makes us the right choice every time","openinghours":"Mo, Tu, We, Th, Fr, Sa 08:00-18:00 Su 09:00-14:00","page_url":"https:\/\/1hourcartitleloans.com\/locations\/title-loans-goodyear-az-1714\/"}
{"row_id":195,"name":"TNL Car Title Loans","address":{"addresscountry":"USA","addresslocality":"Pompano Beach","addressregion":"FL","postalcode":"33064"},"telephone":"+1954-546-0480","aggregaterating":{"ratingcount":"15","ratingvalue":"5"},"pricerange":"$2500 - $50000","description":"We offer small and medium sized auto title loans to the local community. Lowest rates in the state coupled with fast service makes us the right choice every time","openinghours":"Mo, Tu, We, Th, Fr, Sa 08:00-18:00 Su 09:00-14:00","page_url":"https:\/\/1hourcartitleloans.com\/locations\/title-loans-pompano-beach-fl-0480\/"}
{"row_id":196,"name":"TNL Car Title Loans","address":{"postalcode":"90241","addresscountry":"USA","addresslocality":"Downey","addressregion":"CA"},"telephone":"+1562-459-6655","aggregaterating":{"ratingcount":"15","ratingvalue":"5"},"pricerange":"$2500 - $50000","description":"We offer small and medium sized auto title loans to the local community. Lowest rates in the state coupled with fast service makes us the right choice every time","openinghours":"Mo, Tu, We, Th, Fr, Sa 08:00-18:00 Su 09:00-14:00","page_url":"https:\/\/1hourcartitleloans.com\/locations\/title-loans-downey-ca-6655\/"}
{"row_id":197,"name":"TNL Car Title Loans","address":{"addresslocality":"Indio","addresscountry":"USA","postalcode":"92201","addressregion":"CA"},"telephone":"+1442-324-3002","aggregaterating":{"ratingcount":"15","ratingvalue":"5"},"pricerange":"$2500 - $50000","description":"We offer small and medium sized auto title loans to the local community. Lowest rates in the state coupled with fast service makes us the right choice every time","openinghours":"Mo, Tu, We, Th, Fr, Sa 08:00-18:00 Su 09:00-14:00","page_url":"https:\/\/1hourcartitleloans.com\/locations\/title-loans-indio-ca-3002\/"}
{"row_id":198,"name":"TNL Car Title Loans","address":{"addressregion":"IL","addresscountry":"USA","addresslocality":"Rockford","postalcode":"61114"},"telephone":"+1779-216-8505","aggregaterating":{"ratingcount":"15","ratingvalue":"5"},"pricerange":"$2500 - $50000","description":"We offer small and medium sized auto title loans to the local community. Lowest rates in the state coupled with fast service makes us the right choice every time","openinghours":"Mo, Tu, We, Th, Fr, Sa 08:00-18:00 Su 09:00-14:00","page_url":"https:\/\/1hourcartitleloans.com\/locations\/title-loans-rockford-il-8505\/"}
{"row_id":199,"name":"TNL Car Title Loans","address":{"addresslocality":"Portage","addressregion":"MI","addresscountry":"USA","postalcode":"49024"},"telephone":"+1269-359-7550","aggregaterating":{"ratingcount":"15","ratingvalue":"5"},"pricerange":"$2500 - $50000","description":"We offer small and medium sized auto title loans to the local community. Lowest rates in the state coupled with fast service makes us the right choice every time","openinghours":"Mo, Tu, We, Th, Fr, Sa 08:00-18:00 Su 09:00-14:00","page_url":"https:\/\/1hourcartitleloans.com\/locations\/title-loans-portage-mi-7550\/"}
{"row_id":200,"name":"TNL Car Title Loans","address":{"postalcode":"92585","addresscountry":"USA","addresslocality":"Menifee","addressregion":"CA"},"telephone":"+1951-435-0805","aggregaterating":{"ratingcount":"15","ratingvalue":"5"},"pricerange":"$2500 - $50000","description":"We offer small and medium sized auto title loans to the local community. Lowest rates in the state coupled with fast service makes us the right choice every time","openinghours":"Mo, Tu, We, Th, Fr, Sa 08:00-18:00 Su 09:00-14:00","page_url":"https:\/\/1hourcartitleloans.com\/locations\/title-loans-menifee-ca-0805\/"}
{"row_id":201,"name":"TNL Car Title Loans","address":{"addressregion":"IN","addresscountry":"USA","postalcode":"47129","addresslocality":"Clarksville"},"telephone":"+1812-748-2322","aggregaterating":{"ratingcount":"15","ratingvalue":"5"},"pricerange":"$2500 - $50000","description":"We offer small and medium sized auto title loans to the local community. Lowest rates in the state coupled with fast service makes us the right choice every time","openinghours":"Mo, Tu, We, Th, Fr, Sa 08:00-18:00 Su 09:00-14:00","page_url":"https:\/\/1hourcartitleloans.com\/locations\/title-loans-clarksville-in-2322\/"}
{"row_id":202,"name":"TNL Car Title Loans","address":{"addresslocality":"Dallas","addresscountry":"USA","postalcode":"75206","addressregion":"TX"},"telephone":"+1469-949-8850","aggregaterating":{"ratingcount":"15","ratingvalue":"5"},"pricerange":"$2500 - $50000","description":"We offer small and medium sized auto title loans to the local community. Lowest rates in the state coupled with fast service makes us the right choice every time","openinghours":"Mo, Tu, We, Th, Fr, Sa 08:00-18:00 Su 09:00-14:00","page_url":"https:\/\/1hourcartitleloans.com\/locations\/title-loans-dallas-tx-8850\/"}
{"row_id":203,"name":"TNL Car Title Loans","address":{"addresslocality":"Houston","addresscountry":"USA","addressregion":"TX","postalcode":"77030"},"telephone":"+1346-415-4232","aggregaterating":{"ratingcount":"15","ratingvalue":"5"},"pricerange":"$2500 - $50000","description":"We offer small and medium sized auto title loans to the local community. Lowest rates in the state coupled with fast service makes us the right choice every time","openinghours":"Mo, Tu, We, Th, Fr, Sa 08:00-18:00 Su 09:00-14:00","page_url":"https:\/\/1hourcartitleloans.com\/locations\/title-loans-houston-tx-4232\/"}
{"row_id":204,"name":"TNL Car Title Loans","address":{"postalcode":"97035","addresslocality":"Lake Oswego","addresscountry":"USA","addressregion":"OR"},"telephone":"+1971-204-6609","aggregaterating":{"ratingcount":"15","ratingvalue":"5"},"pricerange":"$2500 - $50000","description":"We offer small and medium sized auto title loans to the local community. Lowest rates in the state coupled with fast service makes us the right choice every time","openinghours":"Mo, Tu, We, Th, Fr, Sa 08:00-18:00 Su 09:00-14:00","page_url":"https:\/\/1hourcartitleloans.com\/locations\/title-loans-lake-oswego-or-6609\/"}
{"row_id":205,"name":"TNL Car Title Loans","address":{"addresscountry":"USA","addressregion":"CA","postalcode":"90248","addresslocality":"Gardena"},"telephone":"+1424-254-7750","aggregaterating":{"ratingcount":"15","ratingvalue":"5"},"pricerange":"$2500 - $50000","description":"We offer small and medium sized auto title loans to the local community. Lowest rates in the state coupled with fast service makes us the right choice every time","openinghours":"Mo, Tu, We, Th, Fr, Sa 08:00-18:00 Su 09:00-14:00","page_url":"https:\/\/1hourcartitleloans.com\/locations\/title-loans-gardena-ca-750\/"}
{"row_id":206,"name":"TNL Car Title Loans","address":{"addresslocality":"Chino","addresscountry":"USA","addressregion":"CA","postalcode":"91710"},"telephone":"+1909-903-1474","aggregaterating":{"ratingcount":"15","ratingvalue":"5"},"pricerange":"$2500 - $50000","description":"We offer small and medium sized auto title loans to the local community. Lowest rates in the state coupled with fast service makes us the right choice every time","openinghours":"Mo, Tu, We, Th, Fr, Sa 08:00-18:00 Su 09:00-14:00","page_url":"https:\/\/1hourcartitleloans.com\/locations\/title-loans-chino-ca-1474\/"}
{"row_id":207,"name":"TNL Car Title Loans","address":{"postalcode":"30005","addresscountry":"USA","addresslocality":"Johns Creek","addressregion":"GA"},"telephone":"+1470-568-3550","aggregaterating":{"ratingcount":"15","ratingvalue":"5"},"pricerange":"$2500 - $50000","description":"We offer small and medium sized auto title loans to the local community. Lowest rates in the state coupled with fast service makes us the right choice every time","openinghours":"Mo, Tu, We, Th, Fr, Sa 08:00-18:00 Su 09:00-14:00","page_url":"https:\/\/1hourcartitleloans.com\/locations\/title-loans-johns-creek-ga-3550\/"}
{"row_id":208,"name":"TNL Car Title Loans","address":{"postalcode":"95376","addresslocality":"Tracy","addresscountry":"USA","addressregion":"CA"},"telephone":"+1209-319-0475","aggregaterating":{"ratingcount":"15","ratingvalue":"5"},"pricerange":"$2500 - $50000","description":"We offer small and medium sized auto title loans to the local community. Lowest rates in the state coupled with fast service makes us the right choice every time","openinghours":"Mo, Tu, We, Th, Fr, Sa 08:00-18:00 Su 09:00-14:00","page_url":"https:\/\/1hourcartitleloans.com\/locations\/title-loans-tracy-ca-0475\/"}
{"row_id":209,"name":"TNL Car Title Loans","address":{"postalcode":"91762","addresslocality":"Ontario","addresscountry":"USA","addressregion":"CA"},"telephone":"+1909-638-1202","aggregaterating":{"ratingcount":"15","ratingvalue":"5"},"pricerange":"$2500 - $50000","description":"We offer small and medium sized auto title loans to the local community. Lowest rates in the state coupled with fast service makes us the right choice every time","openinghours":"Mo, Tu, We, Th, Fr, Sa 08:00-18:00 Su 09:00-14:00","page_url":"https:\/\/1hourcartitleloans.com\/locations\/title-loans-ontario-ca-1202\/"}
{"row_id":210,"name":"TNL Car Title Loans","address":{"addresscountry":"USA","addresslocality":"Orange","postalcode":"92868","addressregion":"CA"},"telephone":"+1714-984-6806","aggregaterating":{"ratingcount":"15","ratingvalue":"5"},"pricerange":"$2500 - $50000","description":"We offer small and medium sized auto title loans to the local community. Lowest rates in the state coupled with fast service makes us the right choice every time","openinghours":"Mo, Tu, We, Th, Fr, Sa 08:00-18:00 Su 09:00-14:00","page_url":"https:\/\/1hourcartitleloans.com\/locations\/title-loans-orange-ca-6806\/"}
{"row_id":211,"name":"TNL Car Title Loans","address":{"addresslocality":"Chandler","postalcode":"85248","addresscountry":"USA","addressregion":"AZ"},"telephone":"+1480-536-6733","aggregaterating":{"ratingcount":"15","ratingvalue":"5"},"pricerange":"$2500 - $50000","description":"We offer small and medium sized auto title loans to the local community. Lowest rates in the state coupled with fast service makes us the right choice every time","openinghours":"Mo, Tu, We, Th, Fr, Sa 08:00-18:00 Su 09:00-14:00","page_url":"https:\/\/1hourcartitleloans.com\/locations\/title-loans-chandler-az-6733\/"}
{"row_id":212,"name":"TNL Car Title Loans","address":{"addressregion":"MS","addresscountry":"USA","postalcode":"38671","addresslocality":"South Haven"},"telephone":"+1662-510-4266","aggregaterating":{"ratingcount":"15","ratingvalue":"5"},"pricerange":"$2500 - $50000","description":"We offer small and medium sized auto title loans to the local community. Lowest rates in the state coupled with fast service makes us the right choice every time","openinghours":"Mo, Tu, We, Th, Fr, Sa 08:00-18:00 Su 09:00-14:00","page_url":"https:\/\/1hourcartitleloans.com\/locations\/title-loans-southaven-ms-4266\/"}
{"row_id":213,"name":"TNL Car Title Loans","address":{"addresscountry":"USA","addresslocality":"Calabasas","postalcode":"91302","addressregion":"CA"},"telephone":"+1818-650-2822","aggregaterating":{"ratingcount":"15","ratingvalue":"5"},"pricerange":"$2500 - $50000","description":"We offer small and medium sized auto title loans to the local community. Lowest rates in the state coupled with fast service makes us the right choice every time","openinghours":"Mo, Tu, We, Th, Fr, Sa 08:00-18:00 Su 09:00-14:00","page_url":"https:\/\/1hourcartitleloans.com\/locations\/title-loans-calabasas-ca-2822\/"}
{"row_id":214,"name":"TNL Car Title Loans","address":{"postalcode":"97402","addresscountry":"USA","addresslocality":"Eugene","addressregion":"OR"},"telephone":"+1541-246-3477","aggregaterating":{"ratingcount":"15","ratingvalue":"5"},"pricerange":"$2500 - $50000","description":"We offer small and medium sized auto title loans to the local community. Lowest rates in the state coupled with fast service makes us the right choice every time","openinghours":"Mo, Tu, We, Th, Fr, Sa 08:00-18:00 Su 09:00-14:00","page_url":"https:\/\/1hourcartitleloans.com\/locations\/title-loans-eugene-or-3477\/"}
{"row_id":215,"name":"TNL Car Title Loans","address":{"addresslocality":"Euless","postalcode":"76039","addresscountry":"USA","addressregion":"TX"},"telephone":"+1682-503-9779","aggregaterating":{"ratingcount":"15","ratingvalue":"5"},"pricerange":"$2500 - $50000","description":"We offer small and medium sized auto title loans to the local community. Lowest rates in the state coupled with fast service makes us the right choice every time","openinghours":"Mo, Tu, We, Th, Fr, Sa 08:00-18:00 Su 09:00-14:00","page_url":"https:\/\/1hourcartitleloans.com\/locations\/title-loans-euless-tx-9779\/"}
{"row_id":216,"name":"TNL Car Title Loans","address":{"addresslocality":"Amarillo","addresscountry":"USA","postalcode":"79101","addressregion":"TX"},"telephone":"+1806-402-3588","aggregaterating":{"ratingcount":"15","ratingvalue":"5"},"pricerange":"$2500 - $50000","description":"We offer small and medium sized auto title loans to the local community. Lowest rates in the state coupled with fast service makes us the right choice every time","openinghours":"Mo, Tu, We, Th, Fr, Sa 08:00-18:00 Su 09:00-14:00","page_url":"https:\/\/1hourcartitleloans.com\/locations\/title-loans-amarillo-tx-3588\/"}
{"row_id":217,"name":"TNL Car Title Loans","address":{"addresscountry":"USA","addressregion":"CA","addresslocality":"los angeles","postalcode":"90071"},"telephone":"+17149306111","aggregaterating":{"ratingcount":"15","ratingvalue":"5"},"pricerange":"$2500 - $50000","description":"We offer small and medium sized auto title loans to the local community. Lowest rates in the state coupled with fast service makes us the right choice every time","openinghours":"Mo, Tu, We, Th, Fr, Sa 08:00-18:00 Su 09:00-14:00","page_url":"https:\/\/1hourcartitleloans.com\/locations\/1-hour-car-title-loans-los-angeles\/"}
{"row_id":218,"name":"TNL Car Title Loans","address":{"addresslocality":"Miami","addresscountry":"USA","addressregion":"FL","postalcode":"33146"},"telephone":"+1786-687-4252","aggregaterating":{"ratingcount":"15","ratingvalue":"5"},"pricerange":"$2500 - $50000","description":"We offer small and medium sized auto title loans to the local community. Lowest rates in the state coupled with fast service makes us the right choice every time","openinghours":"Mo, Tu, We, Th, Fr, Sa 08:00-18:00 Su 09:00-14:00","page_url":"https:\/\/1hourcartitleloans.com\/locations\/title-loans-miami-fl-4252\/"}
{"row_id":219,"name":"TNL Car Title Loans","address":{"postalcode":"91770","addresscountry":"USA","addresslocality":"Rosemead","addressregion":"CA"},"telephone":"+1626-515-6150","aggregaterating":{"ratingcount":"15","ratingvalue":"5"},"pricerange":"$2500 - $50000","description":"We offer small and medium sized auto title loans to the local community. Lowest rates in the state coupled with fast service makes us the right choice every time","openinghours":"Mo, Tu, We, Th, Fr, Sa 08:00-18:00 Su 09:00-14:00","page_url":"https:\/\/1hourcartitleloans.com\/locations\/title-loans-rosemead-ca-6150\/"}
{"row_id":220,"name":"TNL Car Title Loans","address":{"postalcode":"35758","addresscountry":"USA","addresslocality":"Madison","addressregion":"AL"},"telephone":"+1256-464-2905","aggregaterating":{"ratingcount":"15","ratingvalue":"5"},"pricerange":"$2500 - $50000","description":"We offer small and medium sized auto title loans to the local community. Lowest rates in the state coupled with fast service makes us the right choice every time","openinghours":"Mo, Tu, We, Th, Fr, Sa 08:00-18:00 Su 09:00-14:00","page_url":"https:\/\/1hourcartitleloans.com\/locations\/title-loans-madison-al-2905\/"}
{"row_id":221,"name":"TNL Car Title Loans","address":{"postalcode":"33330","addresslocality":"Davie","addresscountry":"USA","addressregion":"FL"},"telephone":"+1954-519-6402","aggregaterating":{"ratingcount":"15","ratingvalue":"5"},"pricerange":"$2500 - $50000","description":"We offer small and medium sized auto title loans to the local community. Lowest rates in the state coupled with fast service makes us the right choice every time","openinghours":"Mo, Tu, We, Th, Fr, Sa 08:00-18:00 Su 09:00-14:00","page_url":"https:\/\/1hourcartitleloans.com\/locations\/title-loans-davie-fl-6402\/"}
{"row_id":222,"name":"TNL Car Title Loans","address":{"addresslocality":"Richmond","addresscountry":"USA","postalcode":"94805","addressregion":"CA"},"telephone":"+1510-609-1805","aggregaterating":{"ratingcount":"15","ratingvalue":"5"},"pricerange":"$2500 - $50000","description":"We offer small and medium sized auto title loans to the local community. Lowest rates in the state coupled with fast service makes us the right choice every time","openinghours":"Mo, Tu, We, Th, Fr, Sa 08:00-18:00 Su 09:00-14:00","page_url":"https:\/\/1hourcartitleloans.com\/locations\/title-loans-richmond-ca-1805\/"}
{"row_id":223,"name":"TNL Car Title Loans","address":{"postalcode":"38119","addressregion":"TN","addresscountry":"USA","addresslocality":"Memphis"},"telephone":"+1901-467-1080","aggregaterating":{"ratingcount":"15","ratingvalue":"5"},"pricerange":"$2500 - $50000","description":"We offer small and medium sized auto title loans to the local community. Lowest rates in the state coupled with fast service makes us the right choice every time","openinghours":"Mo, Tu, We, Th, Fr, Sa 08:00-18:00 Su 09:00-14:00","page_url":"https:\/\/1hourcartitleloans.com\/locations\/title-loans-memphis-tn-1080\/"}
{"row_id":224,"name":"TNL Car Title Loans","address":{"addressregion":"TN","addresscountry":"USA","addresslocality":"Hendersonville","postalcode":"37075"},"telephone":"+1615-991-2129","aggregaterating":{"ratingcount":"15","ratingvalue":"5"},"pricerange":"$2500 - $50000","description":"We offer small and medium sized auto title loans to the local community. Lowest rates in the state coupled with fast service makes us the right choice every time","openinghours":"Mo, Tu, We, Th, Fr, Sa 08:00-18:00 Su 09:00-14:00","page_url":"https:\/\/1hourcartitleloans.com\/locations\/title-loans-hendersonville-tn-2129\/"}
{"row_id":225,"name":"TNL Car Title Loans","address":{"postalcode":"95076","addresscountry":"USA","addresslocality":"Watsonville","addressregion":"CA"},"telephone":"+1831-288-2599","aggregaterating":{"ratingcount":"15","ratingvalue":"5"},"pricerange":"$2500 - $50000","description":"We offer small and medium sized auto title loans to the local community. Lowest rates in the state coupled with fast service makes us the right choice every time","openinghours":"Mo, Tu, We, Th, Fr, Sa 08:00-18:00 Su 09:00-14:00","page_url":"https:\/\/1hourcartitleloans.com\/locations\/title-loans-watsonville-ca-2599\/"}
{"row_id":226,"name":"TNL Car Title Loans","address":{"addresslocality":"South Jordan","addresscountry":"USA","addressregion":"UT","postalcode":"84095"},"telephone":"+1385-276-0464","aggregaterating":{"ratingcount":"15","ratingvalue":"5"},"pricerange":"$2500 - $50000","description":"We offer small and medium sized auto title loans to the local community. Lowest rates in the state coupled with fast service makes us the right choice every time","openinghours":"Mo, Tu, We, Th, Fr, Sa 08:00-18:00 Su 09:00-14:00","page_url":"https:\/\/1hourcartitleloans.com\/locations\/title-loans-south-jordan-ut-0464\/"}
{"row_id":227,"name":"TNL Car Title Loans","address":{"addresscountry":"USA","postalcode":"44709","addressregion":"OH","addresslocality":"Canton"},"telephone":"+1234-360-2515","aggregaterating":{"ratingcount":"15","ratingvalue":"5"},"pricerange":"$2500 - $50000","description":"We offer small and medium sized auto title loans to the local community. Lowest rates in the state coupled with fast service makes us the right choice every time","openinghours":"Mo, Tu, We, Th, Fr, Sa 08:00-18:00 Su 09:00-14:00","page_url":"https:\/\/1hourcartitleloans.com\/locations\/title-loans-canton-oh-2515\/"}
{"row_id":228,"name":"TNL Car Title Loans","address":{"postalcode":"95380","addresslocality":"Turlock","addresscountry":"USA","addressregion":"CA"},"telephone":"+1209-417-6151","aggregaterating":{"ratingcount":"15","ratingvalue":"5"},"pricerange":"$2500 - $50000","description":"We offer small and medium sized auto title loans to the local community. Lowest rates in the state coupled with fast service makes us the right choice every time","openinghours":"Mo, Tu, We, Th, Fr, Sa 08:00-18:00 Su 09:00-14:00","page_url":"https:\/\/1hourcartitleloans.com\/locations\/title-loans-turlock-ca-6151\/"}
{"row_id":229,"name":"TNL Car Title Loans","address":{"addresscountry":"USA","addressregion":"OR","postalcode":"97123","addresslocality":"HIllsboro"},"telephone":"+1971-245-3150","aggregaterating":{"ratingcount":"15","ratingvalue":"5"},"pricerange":"$2500 - $50000","description":"We offer small and medium sized auto title loans to the local community. Lowest rates in the state coupled with fast service makes us the right choice every time","openinghours":"Mo, Tu, We, Th, Fr, Sa 08:00-18:00 Su 09:00-14:00","page_url":"https:\/\/1hourcartitleloans.com\/locations\/title-loans-hillsboro-or-3150\/"}
{"row_id":230,"name":"TNL Car Title Loans","address":{"addresslocality":"St. Petersburg","addresscountry":"USA","addressregion":"FL","postalcode":"33713"},"telephone":"+1727-626-3998","aggregaterating":{"ratingcount":"15","ratingvalue":"5"},"pricerange":"$2500 - $50000","description":"We offer small and medium sized auto title loans to the local community. Lowest rates in the state coupled with fast service makes us the right choice every time","openinghours":"Mo, Tu, We, Th, Fr, Sa 08:00-18:00 Su 09:00-14:00","page_url":"https:\/\/1hourcartitleloans.com\/locations\/title-loans-st-petersburg-fl-3998\/"}
{"row_id":231,"name":"TNL Car Title Loans","address":{"addressregion":"KY","addresscountry":"USA","addresslocality":"Lexington","postalcode":"40503"},"telephone":"+1859-444-5531","aggregaterating":{"ratingcount":"15","ratingvalue":"5"},"pricerange":"$2500 - $50000","description":"We offer small and medium sized auto title loans to the local community. Lowest rates in the state coupled with fast service makes us the right choice every time","openinghours":"Mo, Tu, We, Th, Fr, Sa 08:00-18:00 Su 09:00-14:00","page_url":"https:\/\/1hourcartitleloans.com\/locations\/title-loans-lexington-ky-5531\/"}
{"row_id":232,"name":"TNL Car Title Loans","address":{"addressregion":"MI","addresscountry":"USA","addresslocality":"Grand Rapids","postalcode":"49546"},"telephone":"+1616-259-5868","aggregaterating":{"ratingcount":"15","ratingvalue":"5"},"pricerange":"$2500 - $50000","description":"We offer small and medium sized auto title loans to the local community. Lowest rates in the state coupled with fast service makes us the right choice every time","openinghours":"Mo, Tu, We, Th, Fr, Sa 08:00-18:00 Su 09:00-14:00","page_url":"https:\/\/1hourcartitleloans.com\/locations\/title-loans-grand-rapids-mi-5868\/"}
{"row_id":233,"name":"TNL Car Title Loans","address":{"postalcode":"33647","addresscountry":"USA","addressregion":"FL","addresslocality":"Tampa"},"telephone":"+1813-702-0037","aggregaterating":{"ratingcount":"15","ratingvalue":"5"},"pricerange":"$2500 - $50000","description":"We offer small and medium sized auto title loans to the local community. Lowest rates in the state coupled with fast service makes us the right choice every time","openinghours":"Mo, Tu, We, Th, Fr, Sa 08:00-18:00 Su 09:00-14:00","page_url":"https:\/\/1hourcartitleloans.com\/locations\/title-loans-tampa-fl-0037\/"}
{"row_id":234,"name":"TNL Car Title Loans","address":{"addressregion":"TN","addresscountry":"USA","postalcode":"37067","addresslocality":"Franklin"},"telephone":"+1615-538-5446","aggregaterating":{"ratingcount":"15","ratingvalue":"5"},"pricerange":"$2500 - $50000","description":"We offer small and medium sized auto title loans to the local community. Lowest rates in the state coupled with fast service makes us the right choice every time","openinghours":"Mo, Tu, We, Th, Fr, Sa 08:00-18:00 Su 09:00-14:00","page_url":"https:\/\/1hourcartitleloans.com\/locations\/title-loans-franklin-tn-446\/"}
{"row_id":235,"name":"TNL Car Title Loans","address":{"addressregion":"SC","addresslocality":"North Charleston","addresscountry":"USA","postalcode":"29418"},"telephone":"+1843-212-0769","aggregaterating":{"ratingcount":"15","ratingvalue":"5"},"pricerange":"$2500 - $50000","description":"We offer small and medium sized auto title loans to the local community. Lowest rates in the state coupled with fast service makes us the right choice every time","openinghours":"Mo, Tu, We, Th, Fr, Sa 08:00-18:00 Su 09:00-14:00","page_url":"https:\/\/1hourcartitleloans.com\/locations\/title-loans-north-charleston-sc-0769\/"}
{"row_id":236,"name":"TNL Car Title Loans","address":{"addresscountry":"USA","addressregion":"NV","addresslocality":"Reno","postalcode":"89509"},"telephone":"+1775-446-0199","aggregaterating":{"ratingcount":"15","ratingvalue":"5"},"pricerange":"$2500 - $50000","description":"We offer small and medium sized auto title loans to the local community. Lowest rates in the state coupled with fast service makes us the right choice every time","openinghours":"Mo, Tu, We, Th, Fr, Sa 08:00-18:00 Su 09:00-14:00","page_url":"https:\/\/1hourcartitleloans.com\/locations\/title-loans-reno-nv-0199\/"}
{"row_id":237,"name":"TNL Car Title Loans","address":{"addresscountry":"USA","addresslocality":"Vallejo","addressregion":"CA","postalcode":"94590"},"telephone":"+1707-641-2226","aggregaterating":{"ratingcount":"15","ratingvalue":"5"},"pricerange":"$2500 - $50000","description":"We offer small and medium sized auto title loans to the local community. Lowest rates in the state coupled with fast service makes us the right choice every time","openinghours":"Mo, Tu, We, Th, Fr, Sa 08:00-18:00 Su 09:00-14:00","page_url":"https:\/\/1hourcartitleloans.com\/locations\/title-loans-vallejo-ca-2226\/"}
{"row_id":238,"name":"TNL Car Title Loans","address":{"addresslocality":"San Antonio","addresscountry":"USA","postalcode":"78248","addressregion":"TX"},"telephone":"+1830-291-8262","aggregaterating":{"ratingcount":"15","ratingvalue":"5"},"pricerange":"$2500 - $50000","description":"We offer small and medium sized auto title loans to the local community. Lowest rates in the state coupled with fast service makes us the right choice every time","openinghours":"Mo, Tu, We, Th, Fr, Sa 08:00-18:00 Su 09:00-14:00","page_url":"https:\/\/1hourcartitleloans.com\/locations\/title-loans-san-antonio-tx-8262\/"}
{"row_id":239,"name":"TNL Car Title Loans","address":{"addresslocality":"Burbank","postalcode":"91506","addresscountry":"USA","addressregion":"CA"},"telephone":"+1818-649-9660","aggregaterating":{"ratingcount":"15","ratingvalue":"5"},"pricerange":"$2500 - $50000","description":"We offer small and medium sized auto title loans to the local community. Lowest rates in the state coupled with fast service makes us the right choice every time","openinghours":"Mo, Tu, We, Th, Fr, Sa 08:00-18:00 Su 09:00-14:00","page_url":"https:\/\/1hourcartitleloans.com\/locations\/title-loans-burbank-ca-9660\/"}
{"row_id":240,"name":"TNL Car Title Loans","address":{"postalcode":"96002","addresslocality":"Redding","addresscountry":"USA","addressregion":"CA"},"telephone":"+1530-338-1412","aggregaterating":{"ratingcount":"15","ratingvalue":"5"},"pricerange":"$2500 - $50000","description":"We offer small and medium sized auto title loans to the local community. Lowest rates in the state coupled with fast service makes us the right choice every time","openinghours":"Mo, Tu, We, Th, Fr, Sa 08:00-18:00 Su 09:00-14:00","page_url":"https:\/\/1hourcartitleloans.com\/locations\/title-loans-redding-ca-1412\/"}
{"row_id":241,"name":"TNL Car Title Loans","address":{"addresslocality":"Westminster","addresscountry":"USA","postalcode":"92683","addressregion":"CA"},"telephone":"+1657-400-2055","aggregaterating":{"ratingcount":"15","ratingvalue":"5"},"pricerange":"$2500 - $50000","description":"We offer small and medium sized auto title loans to the local community. Lowest rates in the state coupled with fast service makes us the right choice every time","openinghours":"Mo, Tu, We, Th, Fr, Sa 08:00-18:00 Su 09:00-14:00","page_url":"https:\/\/1hourcartitleloans.com\/locations\/title-loans-westminster-ca-2055\/"}
{"row_id":242,"name":"TNL Car Title Loans","address":{"addresscountry":"USA","addressregion":"TX","postalcode":"78041","addresslocality":"Laredo"},"telephone":"+1956-415-0313","aggregaterating":{"ratingcount":"15","ratingvalue":"5"},"pricerange":"$2500 - $50000","description":"We offer small and medium sized auto title loans to the local community. Lowest rates in the state coupled with fast service makes us the right choice every time","openinghours":"Mo, Tu, We, Th, Fr, Sa 08:00-18:00 Su 09:00-14:00","page_url":"https:\/\/1hourcartitleloans.com\/locations\/title-loans-laredo-tx-0313\/"}
{"row_id":243,"name":"TNL Car Title Loans","address":{"postalcode":"97301","addresscountry":"USA","addressregion":"OR","addresslocality":"Salem"},"telephone":"+1971-208-7685","aggregaterating":{"ratingcount":"15","ratingvalue":"5"},"pricerange":"$2500 - $50000","description":"We offer small and medium sized auto title loans to the local community. Lowest rates in the state coupled with fast service makes us the right choice every time","openinghours":"Mo, Tu, We, Th, Fr, Sa 08:00-18:00 Su 09:00-14:00","page_url":"https:\/\/1hourcartitleloans.com\/locations\/title-loans-salem-or-7685\/"}
{"row_id":244,"name":"TNL Car Title Loans","address":{"postalcode":"95020","addresscountry":"USA","addresslocality":"Gilroy","addressregion":"CA"},"telephone":"+1669-305-1911","aggregaterating":{"ratingcount":"15","ratingvalue":"5"},"pricerange":"$2500 - $50000","description":"We offer small and medium sized auto title loans to the local community. Lowest rates in the state coupled with fast service makes us the right choice every time","openinghours":"Mo, Tu, We, Th, Fr, Sa 08:00-18:00 Su 09:00-14:00","page_url":"https:\/\/1hourcartitleloans.com\/locations\/title-loans-gilroy-ca-1911\/"}
{"row_id":245,"name":"TNL Car Title Loans","address":{"postalcode":"33542","addresscountry":"USA","addresslocality":"Zephyrhills","addressregion":"FL"},"telephone":"+1813-670-2472","aggregaterating":{"ratingcount":"15","ratingvalue":"5"},"pricerange":"$2500 - $50000","description":"We offer small and medium sized auto title loans to the local community. Lowest rates in the state coupled with fast service makes us the right choice every time","openinghours":"Mo, Tu, We, Th, Fr, Sa 08:00-18:00 Su 09:00-14:00","page_url":"https:\/\/1hourcartitleloans.com\/locations\/title-loans-zephyrhills-fl-2472\/"}
{"row_id":246,"name":"TNL Car Title Loans","address":{"addresslocality":"Palm Coast","addresscountry":"USA","postalcode":"32164","addressregion":"FL"},"telephone":"+1386-400-3641","aggregaterating":{"ratingcount":"15","ratingvalue":"5"},"pricerange":"$2500 - $50000","description":"We offer small and medium sized auto title loans to the local community. Lowest rates in the state coupled with fast service makes us the right choice every time","openinghours":"Mo, Tu, We, Th, Fr, Sa 08:00-18:00 Su 09:00-14:00","page_url":"https:\/\/1hourcartitleloans.com\/locations\/title-loans-palm-coast-fl-3641\/"}
{"row_id":247,"name":"TNL Car Title Loans","address":{"postalcode":"84128","addresscountry":"USA","addressregion":"UT","addresslocality":"West Valley City"},"telephone":"+1385-210-1677","aggregaterating":{"ratingcount":"15","ratingvalue":"5"},"pricerange":"$2500 - $50000","description":"We offer small and medium sized auto title loans to the local community. Lowest rates in the state coupled with fast service makes us the right choice every time","openinghours":"Mo, Tu, We, Th, Fr, Sa 08:00-18:00 Su 09:00-14:00","page_url":"https:\/\/1hourcartitleloans.com\/locations\/title-loans-west-valley-city-ut-1677\/"}
{"row_id":248,"name":"TNL Car Title Loans","address":{"postalcode":"76502","addresscountry":"USA","addresslocality":"Temple","addressregion":"TX"},"telephone":"+1254-534-6393","aggregaterating":{"ratingcount":"15","ratingvalue":"5"},"pricerange":"$2500 - $50000","description":"We offer small and medium sized auto title loans to the local community. Lowest rates in the state coupled with fast service makes us the right choice every time","openinghours":"Mo, Tu, We, Th, Fr, Sa 08:00-18:00 Su 09:00-14:00","page_url":"https:\/\/1hourcartitleloans.com\/locations\/title-loans-temple-tx-6393\/"}
{"row_id":249,"name":"TNL Car Title Loans","address":{"addresslocality":"Sandy","addresscountry":"USA","addressregion":"UT","postalcode":"84070"},"telephone":"+1385-276-0452","aggregaterating":{"ratingcount":"15","ratingvalue":"5"},"pricerange":"$2500 - $50000","description":"We offer small and medium sized auto title loans to the local community. Lowest rates in the state coupled with fast service makes us the right choice every time","openinghours":"Mo, Tu, We, Th, Fr, Sa 08:00-18:00 Su 09:00-14:00","page_url":"https:\/\/1hourcartitleloans.com\/locations\/title-loans-sandy-ut-0452\/"}
{"row_id":250,"name":"TNL Car Title Loans","address":{"addresslocality":"Lubbock","addresscountry":"USA","postalcode":"79416","addressregion":"TX"},"telephone":"+1806-412-0556","aggregaterating":{"ratingcount":"15","ratingvalue":"5"},"pricerange":"$2500 - $50000","description":"We offer small and medium sized auto title loans to the local community. Lowest rates in the state coupled with fast service makes us the right choice every time","openinghours":"Mo, Tu, We, Th, Fr, Sa 08:00-18:00 Su 09:00-14:00","page_url":"https:\/\/1hourcartitleloans.com\/locations\/title-loans-lubbock-tx-0556\/"}
{"row_id":251,"name":"TNL Car Title Loans","address":{"addressregion":"MI","addresscountry":"USA","addresslocality":"Midland","postalcode":"48640"},"telephone":"+1989-488-6117","aggregaterating":{"ratingcount":"15","ratingvalue":"5"},"pricerange":"$2500 - $50000","description":"We offer small and medium sized auto title loans to the local community. Lowest rates in the state coupled with fast service makes us the right choice every time","openinghours":"Mo, Tu, We, Th, Fr, Sa 08:00-18:00 Su 09:00-14:00","page_url":"https:\/\/1hourcartitleloans.com\/locations\/title-loans-midland-mi-6117\/"}
{"row_id":252,"name":"TNL Car Title Loans","address":{"addresslocality":"Calexico","addresscountry":"USA","postalcode":"92231","addressregion":"CA"},"telephone":"+1760-491-1181","aggregaterating":{"ratingcount":"15","ratingvalue":"5"},"pricerange":"$2500 - $50000","description":"We offer small and medium sized auto title loans to the local community. Lowest rates in the state coupled with fast service makes us the right choice every time","openinghours":"Mo, Tu, We, Th, Fr, Sa 08:00-18:00 Su 09:00-14:00","page_url":"https:\/\/1hourcartitleloans.com\/locations\/title-loans-calexico-ca-1181\/"}
{"row_id":253,"name":"TNL Car Title Loans","address":{"postalcode":"44134","addresscountry":"USA","addresslocality":"Parma","addressregion":"OH"},"telephone":"+1440-499-4113","aggregaterating":{"ratingcount":"15","ratingvalue":"5"},"pricerange":"$2500 - $50000","description":"We offer small and medium sized auto title loans to the local community. Lowest rates in the state coupled with fast service makes us the right choice every time","openinghours":"Mo, Tu, We, Th, Fr, Sa 08:00-18:00 Su 09:00-14:00","page_url":"https:\/\/1hourcartitleloans.com\/locations\/title-loans-parma-oh-4113\/"}
{"row_id":254,"name":"TNL Car Title Loans","address":{"postalcode":"43004","addresscountry":"USA","addressregion":"OH","addresslocality":"Blacklick"},"telephone":"+1614-655-1449","aggregaterating":{"ratingcount":"15","ratingvalue":"5"},"pricerange":"$2500 - $50000","description":"We offer small and medium sized auto title loans to the local community. Lowest rates in the state coupled with fast service makes us the right choice every time","openinghours":"Mo, Tu, We, Th, Fr, Sa 08:00-18:00 Su 09:00-14:00","page_url":"https:\/\/1hourcartitleloans.com\/locations\/title-loans-blacklick-oh-449\/"}
{"row_id":255,"name":"TNL Car Title Loans","address":{"postalcode":"91360","addresscountry":"USA","addresslocality":"Thousand Oaks","addressregion":"CA"},"telephone":"+1805-309-2331","aggregaterating":{"ratingcount":"15","ratingvalue":"5"},"pricerange":"$2500 - $50000","description":"We offer small and medium sized auto title loans to the local community. Lowest rates in the state coupled with fast service makes us the right choice every time","openinghours":"Mo, Tu, We, Th, Fr, Sa 08:00-18:00 Su 09:00-14:00","page_url":"https:\/\/1hourcartitleloans.com\/locations\/title-loans-thousand-oaks-ca-2331\/"}
{"row_id":256,"name":"TNL Car Title Loans","address":{"addresslocality":"Wellington","addresscountry":"USA","addressregion":"FL","postalcode":"33414"},"telephone":"+1561-238-3019","aggregaterating":{"ratingcount":"15","ratingvalue":"5"},"pricerange":"$2500 - $50000","description":"We offer small and medium sized auto title loans to the local community. Lowest rates in the state coupled with fast service makes us the right choice every time","openinghours":"Mo, Tu, We, Th, Fr, Sa 08:00-18:00 Su 09:00-14:00","page_url":"https:\/\/1hourcartitleloans.com\/locations\/title-loans-wellington-fl-3019\/"}
{"row_id":257,"name":"TNL Car Title Loans","address":{"addresslocality":"Wyoming","addresscountry":"USA","postalcode":"49519","addressregion":"MI"},"telephone":"+1269-290-1922","aggregaterating":{"ratingcount":"15","ratingvalue":"5"},"pricerange":"$2500 - $50000","description":"We offer small and medium sized auto title loans to the local community. Lowest rates in the state coupled with fast service makes us the right choice every time","openinghours":"Mo, Tu, We, Th, Fr, Sa 08:00-18:00 Su 09:00-14:00","page_url":"https:\/\/1hourcartitleloans.com\/locations\/title-loans-wyoming-mi-1922\/"}
{"row_id":258,"name":"TNL Car Title Loans","address":{"postalcode":"76543","addresslocality":"Killeen","addresscountry":"USA","addressregion":"TX"},"telephone":"+1254-600-9212","aggregaterating":{"ratingcount":"15","ratingvalue":"5"},"pricerange":"$2500 - $50000","description":"We offer small and medium sized auto title loans to the local community. Lowest rates in the state coupled with fast service makes us the right choice every time","openinghours":"Mo, Tu, We, Th, Fr, Sa 08:00-18:00 Su 09:00-14:00","page_url":"https:\/\/1hourcartitleloans.com\/locations\/title-loans-killeen-tx-9212\/"}
{"row_id":259,"name":"TNL Car Title Loans","address":{"addresslocality":"Perris","addresscountry":"USA","addressregion":"CA","postalcode":"92570"},"telephone":"+1951-435-0808","aggregaterating":{"ratingcount":"15","ratingvalue":"5"},"pricerange":"$2500 - $50000","description":"We offer small and medium sized auto title loans to the local community. Lowest rates in the state coupled with fast service makes us the right choice every time","openinghours":"Mo, Tu, We, Th, Fr, Sa 08:00-18:00 Su 09:00-14:00","page_url":"https:\/\/1hourcartitleloans.com\/locations\/title-loans-perris-ca-0808\/"}
{"row_id":260,"name":"TNL Car Title Loans","address":{"addressregion":"NM","addresscountry":"USA","addresslocality":"Albuquerque","postalcode":"87110"},"telephone":"+1505-218-6045","aggregaterating":{"ratingcount":"15","ratingvalue":"5"},"pricerange":"$2500 - $50000","description":"We offer small and medium sized auto title loans to the local community. Lowest rates in the state coupled with fast service makes us the right choice every time","openinghours":"Mo, Tu, We, Th, Fr, Sa 08:00-18:00 Su 09:00-14:00","page_url":"https:\/\/1hourcartitleloans.com\/locations\/title-loans-albuquerque-nm-6045\/"}
{"row_id":261,"name":"TNL Car Title Loans","address":{"addresslocality":"Chino Hills","addresscountry":"USA","postalcode":"91709","addressregion":"CA"},"telephone":"+1909-903-1500","aggregaterating":{"ratingcount":"15","ratingvalue":"5"},"pricerange":"$2500 - $50000","description":"We offer small and medium sized auto title loans to the local community. Lowest rates in the state coupled with fast service makes us the right choice every time","openinghours":"Mo, Tu, We, Th, Fr, Sa 08:00-18:00 Su 09:00-14:00","page_url":"https:\/\/1hourcartitleloans.com\/locations\/title-loans-chino-hills-ca-1500\/"}
{"row_id":262,"name":"TNL Car Title Loans","address":{"postalcode":"93534","addresscountry":"USA","addressregion":"CA","addresslocality":"Lancaster"},"telephone":"+1661-405-4880","aggregaterating":{"ratingcount":"15","ratingvalue":"5"},"pricerange":"$2500 - $50000","description":"We offer small and medium sized auto title loans to the local community. Lowest rates in the state coupled with fast service makes us the right choice every time","openinghours":"Mo, Tu, We, Th, Fr, Sa 08:00-18:00 Su 09:00-14:00","page_url":"https:\/\/1hourcartitleloans.com\/locations\/title-loans-lancaster-ca-4880\/"}
{"row_id":263,"name":"TNL Car Title Loans","address":{"postalcode":"93306","addresscountry":"USA","addressregion":"CA","addresslocality":"Bakersfield"},"telephone":"+1661-293-7882","aggregaterating":{"ratingcount":"15","ratingvalue":"5"},"pricerange":"$2500 - $50000","description":"We offer small and medium sized auto title loans to the local community. Lowest rates in the state coupled with fast service makes us the right choice every time","openinghours":"Mo, Tu, We, Th, Fr, Sa 08:00-18:00 Su 09:00-14:00","page_url":"https:\/\/1hourcartitleloans.com\/locations\/title-loans-bakersfield-ca-7882\/"}
{"row_id":264,"name":"TNL Car Title Loans","address":{"postalcode":"94014","addresscountry":"USA","addresslocality":"Daly City","addressregion":"CA"},"telephone":"+1628-239-3944","aggregaterating":{"ratingcount":"15","ratingvalue":"5"},"pricerange":"$2500 - $50000","description":"We offer small and medium sized auto title loans to the local community. Lowest rates in the state coupled with fast service makes us the right choice every time","openinghours":"Mo, Tu, We, Th, Fr, Sa 08:00-18:00 Su 09:00-14:00","page_url":"https:\/\/1hourcartitleloans.com\/locations\/title-loans-daly-city-ca-3944\/"}
{"row_id":265,"name":"TNL Car Title Loans","address":{"postalcode":"93274","addresslocality":"Tulare","addresscountry":"USA","addressregion":"CA"},"telephone":"+1559-358-2370","aggregaterating":{"ratingcount":"15","ratingvalue":"5"},"pricerange":"$2500 - $50000","description":"We offer small and medium sized auto title loans to the local community. Lowest rates in the state coupled with fast service makes us the right choice every time","openinghours":"Mo, Tu, We, Th, Fr, Sa 08:00-18:00 Su 09:00-14:00","page_url":"https:\/\/1hourcartitleloans.com\/locations\/title-loans-tulare-ca-2370\/"}
{"row_id":266,"name":"TNL Car Title Loans","address":{"postalcode":"90035","addresslocality":"Los Angeles","addresscountry":"USA","addressregion":"CA"},"telephone":"+1213-443-8002","aggregaterating":{"ratingcount":"15","ratingvalue":"5"},"pricerange":"$2500 - $50000","description":"We offer small and medium sized auto title loans to the local community. Lowest rates in the state coupled with fast service makes us the right choice every time","openinghours":"Mo, Tu, We, Th, Fr, Sa 08:00-18:00 Su 09:00-14:00","page_url":"https:\/\/1hourcartitleloans.com\/locations\/title-loans-los-angeles-ca-8002\/"}
{"row_id":267,"name":"TNL Car Title Loans","address":{"postalcode":"37660","addressregion":"TN","addresscountry":"USA","addresslocality":"Kingsport"},"telephone":"+1423-251-1109","aggregaterating":{"ratingcount":"15","ratingvalue":"5"},"pricerange":"$2500 - $50000","description":"We offer small and medium sized auto title loans to the local community. Lowest rates in the state coupled with fast service makes us the right choice every time","openinghours":"Mo, Tu, We, Th, Fr, Sa 08:00-18:00 Su 09:00-14:00","page_url":"https:\/\/1hourcartitleloans.com\/locations\/title-loans-kingsport-tn-1109\/"}
{"row_id":268,"name":"TNL Car Title Loans","address":{"addresslocality":"Kokomo","addresscountry":"USA","postalcode":"46902","addressregion":"IN"},"telephone":"+1765-319-8836","aggregaterating":{"ratingcount":"15","ratingvalue":"5"},"pricerange":"$2500 - $50000","description":"We offer small and medium sized auto title loans to the local community. Lowest rates in the state coupled with fast service makes us the right choice every time","openinghours":"Mo, Tu, We, Th, Fr, Sa 08:00-18:00 Su 09:00-14:00","page_url":"https:\/\/1hourcartitleloans.com\/locations\/title-loans-kokomo-in-8836\/"}
{"row_id":269,"name":"TNL Car Title Loans","address":{"addressregion":"CA","addresscountry":"USA","postalcode":"94538","addresslocality":"Fremont"},"telephone":"+1341-888-0020","aggregaterating":{"ratingcount":"15","ratingvalue":"5"},"pricerange":"$2500 - $50000","description":"We offer small and medium sized auto title loans to the local community. Lowest rates in the state coupled with fast service makes us the right choice every time","openinghours":"Mo, Tu, We, Th, Fr, Sa 08:00-18:00 Su 09:00-14:00","page_url":"https:\/\/1hourcartitleloans.com\/locations\/1-hour-car-title-loans-fremont-ca-duplicate-1\/"}
{"row_id":270,"name":"TNL Car Title Loans","address":{"postalcode":"75080","addresscountry":"USA","addresslocality":"Richardson","addressregion":"TX"},"telephone":"+1469-949-8838","aggregaterating":{"ratingcount":"15","ratingvalue":"5"},"pricerange":"$2500 - $50000","description":"We offer small and medium sized auto title loans to the local community. Lowest rates in the state coupled with fast service makes us the right choice every time","openinghours":"Mo, Tu, We, Th, Fr, Sa 08:00-18:00 Su 09:00-14:00","page_url":"https:\/\/1hourcartitleloans.com\/locations\/title-loans-richardson-tx-8838\/"}
{"row_id":271,"name":"TNL Car Title Loans","address":{"addresscountry":"USA","addresslocality":"Galveston","addressregion":"TX","postalcode":"77551"},"telephone":"+1409-515-8113","aggregaterating":{"ratingcount":"15","ratingvalue":"5"},"pricerange":"$2500 - $50000","description":"We offer small and medium sized auto title loans to the local community. Lowest rates in the state coupled with fast service makes us the right choice every time","openinghours":"Mo, Tu, We, Th, Fr, Sa 08:00-18:00 Su 09:00-14:00","page_url":"https:\/\/1hourcartitleloans.com\/locations\/title-loans-galveston-tx-8113\/"}
{"row_id":272,"name":"TNL Car Title Loans","address":{"addresscountry":"USA","addressregion":"CA","postalcode":"94609","addresslocality":"Oakland"},"telephone":"+1510-671-5455","aggregaterating":{"ratingcount":"15","ratingvalue":"5"},"pricerange":"$2500 - $50000","description":"We offer small and medium sized auto title loans to the local community. Lowest rates in the state coupled with fast service makes us the right choice every time","openinghours":"Mo, Tu, We, Th, Fr, Sa 08:00-18:00 Su 09:00-14:00","page_url":"https:\/\/1hourcartitleloans.com\/locations\/title-loans-oakland-ca-5455\/"}
{"row_id":273,"name":"TNL Car Title Loans","address":{"addressregion":"GA","postalcode":"30076","addresscountry":"USA","addresslocality":"Roswell"},"telephone":"+1470-387-0799","aggregaterating":{"ratingcount":"15","ratingvalue":"5"},"pricerange":"$2500 - $50000","description":"We offer small and medium sized auto title loans to the local community. Lowest rates in the state coupled with fast service makes us the right choice every time","openinghours":"Mo, Tu, We, Th, Fr, Sa 08:00-18:00 Su 09:00-14:00","page_url":"https:\/\/1hourcartitleloans.com\/locations\/title-loans-roswell-ga-0799\/"}
{"row_id":274,"name":"TNL Car Title Loans","address":{"addressregion":"CA","addresscountry":"USA","addresslocality":"Montebello","postalcode":"90640"},"telephone":"+1323-479-6002","aggregaterating":{"ratingcount":"15","ratingvalue":"5"},"pricerange":"$2500 - $50000","description":"We offer small and medium sized auto title loans to the local community. Lowest rates in the state coupled with fast service makes us the right choice every time","openinghours":"Mo, Tu, We, Th, Fr, Sa 08:00-18:00 Su 09:00-14:00","page_url":"https:\/\/1hourcartitleloans.com\/locations\/1-hour-car-title-loans-monrovia-ca-duplicate-1\/"}
{"row_id":275,"name":"TNL Car Title Loans","address":{"addressregion":"IL","addresslocality":"Schaumburg","postalcode":"60195","addresscountry":"USA"},"telephone":"+1630-507-9966","aggregaterating":{"ratingcount":"15","ratingvalue":"5"},"pricerange":"$2500 - $50000","description":"We offer small and medium sized auto title loans to the local community. Lowest rates in the state coupled with fast service makes us the right choice every time","openinghours":"Mo, Tu, We, Th, Fr, Sa 08:00-18:00 Su 09:00-14:00","page_url":"https:\/\/1hourcartitleloans.com\/locations\/title-loans-schaumburg-il-9966\/"}
{"row_id":276,"name":"TNL Car Title Loans","address":{"addresslocality":"San Luis Obispo","addresscountry":"USA","postalcode":"93401","addressregion":"CA"},"telephone":"+1805-316-5991","aggregaterating":{"ratingcount":"15","ratingvalue":"5"},"pricerange":"$2500 - $50000","description":"We offer small and medium sized auto title loans to the local community. Lowest rates in the state coupled with fast service makes us the right choice every time","openinghours":"Mo, Tu, We, Th, Fr, Sa 08:00-18:00 Su 09:00-14:00","page_url":"https:\/\/1hourcartitleloans.com\/locations\/title-loans-san-luis-obispo-ca-5991\/"}
{"row_id":277,"name":"TNL Car Title Loans","address":{"addresscountry":"USA","addressregion":"FL","addresslocality":"Titusville","postalcode":"32796"},"telephone":"+1321-348-0940","aggregaterating":{"ratingcount":"15","ratingvalue":"5"},"pricerange":"$2500 - $50000","description":"We offer small and medium sized auto title loans to the local community. Lowest rates in the state coupled with fast service makes us the right choice every time","openinghours":"Mo, Tu, We, Th, Fr, Sa 08:00-18:00 Su 09:00-14:00","page_url":"https:\/\/1hourcartitleloans.com\/locations\/title-loans-titusville-fl-0940\/"}
{"row_id":278,"name":"TNL Car Title Loans","address":{"addresslocality":"Savannah","addresscountry":"USA","postalcode":"31405","addressregion":"GA"},"telephone":"+1912-200-7010","aggregaterating":{"ratingcount":"15","ratingvalue":"5"},"pricerange":"$2500 - $50000","description":"We offer small and medium sized auto title loans to the local community. Lowest rates in the state coupled with fast service makes us the right choice every time","openinghours":"Mo, Tu, We, Th, Fr, Sa 08:00-18:00 Su 09:00-14:00","page_url":"https:\/\/1hourcartitleloans.com\/locations\/title-loans-savannah-ga-7010\/"}
{"row_id":279,"name":"TNL Car Title Loans","address":{"addresslocality":"Ceres","addresscountry":"USA","postalcode":"95307","addressregion":"CA"},"telephone":"+1209-312-7115","aggregaterating":{"ratingcount":"15","ratingvalue":"5"},"pricerange":"$2500 - $50000","description":"We offer small and medium sized auto title loans to the local community. Lowest rates in the state coupled with fast service makes us the right choice every time","openinghours":"Mo, Tu, We, Th, Fr, Sa 08:00-18:00 Su 09:00-14:00","page_url":"https:\/\/1hourcartitleloans.com\/locations\/title-loans-ceres-ca-7115\/"}
{"row_id":280,"name":"TNL Car Title Loans","address":{"addressregion":"SC","addresscountry":"USA","addresslocality":"Mt Pleasant","postalcode":"29464"},"telephone":"+1843-654-0352","aggregaterating":{"ratingcount":"15","ratingvalue":"5"},"pricerange":"$2500 - $50000","description":"We offer small and medium sized auto title loans to the local community. Lowest rates in the state coupled with fast service makes us the right choice every time","openinghours":"Mo, Tu, We, Th, Fr, Sa 08:00-18:00 Su 09:00-14:00","page_url":"https:\/\/1hourcartitleloans.com\/locations\/title-loans-mt-pleasant-sc-0352\/"}
{"row_id":281,"name":"TNL Car Title Loans","address":{"addresslocality":"Odessa","addresscountry":"USA","addressregion":"TX","postalcode":"79761"},"telephone":"+1432-219-9044","aggregaterating":{"ratingcount":"15","ratingvalue":"5"},"pricerange":"$2500 - $50000","description":"We offer small and medium sized auto title loans to the local community. Lowest rates in the state coupled with fast service makes us the right choice every time","openinghours":"Mo, Tu, We, Th, Fr, Sa 08:00-18:00 Su 09:00-14:00","page_url":"https:\/\/1hourcartitleloans.com\/locations\/title-loans-odessa-tx-9044\/"}
{"row_id":282,"name":"TNL Car Title Loans","address":{"addresslocality":"Wheaton","addressregion":"IL","addresscountry":"USA","postalcode":"60187"},"telephone":"+1331-716-0006","aggregaterating":{"ratingcount":"15","ratingvalue":"5"},"pricerange":"$2500 - $50000","description":"We offer small and medium sized auto title loans to the local community. Lowest rates in the state coupled with fast service makes us the right choice every time","openinghours":"Mo, Tu, We, Th, Fr, Sa 08:00-18:00 Su 09:00-14:00","page_url":"https:\/\/1hourcartitleloans.com\/locations\/title-loans-wheaton-il-0006\/"}
{"row_id":283,"name":"TNL Car Title Loans","address":{"addresslocality":"Rio Rancho","addresscountry":"USA","postalcode":"87124","addressregion":"NM"},"telephone":"+1505-218-6303","aggregaterating":{"ratingcount":"15","ratingvalue":"5"},"pricerange":"$2500 - $50000","description":"We offer small and medium sized auto title loans to the local community. Lowest rates in the state coupled with fast service makes us the right choice every time","openinghours":"Mo, Tu, We, Th, Fr, Sa 08:00-18:00 Su 09:00-14:00","page_url":"https:\/\/1hourcartitleloans.com\/locations\/title-loans-rio-rancho-nm-6303\/"}
{"row_id":284,"name":"TNL Car Title Loans","address":{"addresscountry":"USA","addressregion":"CA","postalcode":"92211","addresslocality":"Palm Desert"},"telephone":"+1442-227-2545","aggregaterating":{"ratingcount":"15","ratingvalue":"5"},"pricerange":"$2500 - $50000","description":"We offer small and medium sized auto title loans to the local community. Lowest rates in the state coupled with fast service makes us the right choice every time","openinghours":"Mo, Tu, We, Th, Fr, Sa 08:00-18:00 Su 09:00-14:00","page_url":"https:\/\/1hourcartitleloans.com\/locations\/title-loans-palm-desert-ca-2545\/"}
{"row_id":285,"name":"TNL Car Title Loans","address":{"addresslocality":"Anaheim","addresscountry":"USA","postalcode":"92807","addressregion":"CA"},"telephone":"+1714-984-6553","aggregaterating":{"ratingcount":"15","ratingvalue":"5"},"pricerange":"$2500 - $50000","description":"We offer small and medium sized auto title loans to the local community. Lowest rates in the state coupled with fast service makes us the right choice every time","openinghours":"Mo, Tu, We, Th, Fr, Sa 08:00-18:00 Su 09:00-14:00","page_url":"https:\/\/1hourcartitleloans.com\/locations\/title-loans-anaheim-ca-6553\/"}
{"row_id":286,"name":"TNL Car Title Loans","address":{"postalcode":"23606","addresscountry":"USA","addressregion":"VA","addresslocality":"Newport News"},"telephone":"+1757-320-4919","aggregaterating":{"ratingcount":"15","ratingvalue":"5"},"pricerange":"$2500 - $50000","description":"We offer small and medium sized auto title loans to the local community. Lowest rates in the state coupled with fast service makes us the right choice every time","openinghours":"Mo, Tu, We, Th, Fr, Sa 08:00-18:00 Su 09:00-14:00","page_url":"https:\/\/1hourcartitleloans.com\/locations\/title-loans-newport-news-va-4919\/"}
{"row_id":287,"name":"TNL Car Title Loans","address":{"addresslocality":"Murray","postalcode":"84117","addresscountry":"USA","addressregion":"UT"},"telephone":"+1385-388-8122","aggregaterating":{"ratingcount":"15","ratingvalue":"5"},"pricerange":"$2500 - $50000","description":"We offer small and medium sized auto title loans to the local community. Lowest rates in the state coupled with fast service makes us the right choice every time","openinghours":"Mo, Tu, We, Th, Fr, Sa 08:00-18:00 Su 09:00-14:00","page_url":"https:\/\/1hourcartitleloans.com\/locations\/title-loans-murray-ut-8122\/"}
{"row_id":288,"name":"TNL Car Title Loans","address":{"addresslocality":"Huntington Park","addresscountry":"USA","addressregion":"CA","postalcode":"90255"},"telephone":"+1323-435-1411","aggregaterating":{"ratingcount":"15","ratingvalue":"5"},"pricerange":"$2500 - $50000","description":"We offer small and medium sized auto title loans to the local community. Lowest rates in the state coupled with fast service makes us the right choice every time","openinghours":"Mo, Tu, We, Th, Fr, Sa 08:00-18:00 Su 09:00-14:00","page_url":"https:\/\/1hourcartitleloans.com\/locations\/title-loans-huntington-park-ca-1411\/"}
