{"row_id":0,"name":"心电图汽车零部件","address":{"streetaddress":"克什米尔门尼克尔森路费尔斯通大厦3号铺3435号","addresslocality":"印度","addressregion":"新德里","postalcode":"110006"},"telephone":"+ 91 - 8048127964","geo":{"longitude":"77.22557150779572","latitude":"28.665484384337162"},"openinghours":["Mo 11:00 AM-8:00 PM","Th 11:00 AM-8:00 PM","Su closed-","Tu 11:00 AM-8:00 PM","We 11:00 AM-8:00 PM","Sa 11:00 AM-8:00 PM","Fr 11:00 AM-8:00 PM"],"page_url":"https:\/\/www.01clean-up.com\/pages\/best-choice-for-your\/6288d095f7c44c00016f883f"}
{"row_id":1,"name":"心电图汽车零部件","address":{"streetaddress":"Punja Sharif Kashmere门490号，Rajan Kalan","addresslocality":"印度","addressregion":"新德里","postalcode":"110006"},"telephone":"+ 91 - 8048127964","geo":{"longitude":"77.22670340000002","latitude":"28.6640999"},"openinghours":["Mo 11:00 AM-8:00 PM","Th 11:00 AM-8:00 PM","Su closed-","Tu 11:00 AM-8:00 PM","We 11:00 AM-8:00 PM","Sa 11:00 AM-8:00 PM","Fr 11:00 AM-8:00 PM"],"page_url":"https:\/\/www.01clean-up.com\/products\/category\/clutch-plate\/1"}
{"row_id":2,"name":"心电图汽车零部件","address":{"streetaddress":"克什米尔门尼克尔森路费尔斯通大厦3号铺3435号","addresslocality":"印度","addressregion":"新德里","postalcode":"110006"},"telephone":"8048127964","geo":{"longitude":"77.22557150779572","latitude":"28.665484384337162"},"openinghours":["Mo 11:00 AM-8:00 PM","Th 11:00 AM-8:00 PM","Su closed-","Tu 11:00 AM-8:00 PM","We 11:00 AM-8:00 PM","Sa 11:00 AM-8:00 PM","Fr 11:00 AM-8:00 PM"],"page_url":"https:\/\/www.01clean-up.com\/"}
